[{"duns_number":"001207208","products":["CARBON DIOXIDE","NITROGEN","OXYGEN"],"primaryname":"Airgas Usa, LLC","add_country":"United States","latitude":"41.916328","longitude":"-71.480167"},{"duns_number":"001283704","products":["CHLORHEXIDINE GLUCONATE ORAL RINSE"],"primaryname":"Actavis Pharma Company","add_country":"United States","latitude":"39.987927","longitude":"-75.044899"},{"duns_number":"001426311","products":["NITROGEN","OXYGEN"],"primaryname":"Upm Pharmaceuticals, Inc.","add_country":"United States","latitude":"42.39773","longitude":"-71.047468"},{"duns_number":"002221369","products":["OXYGEN"],"primaryname":"Saptalis Pharmaceuticals, LLC","add_country":"United States","latitude":"36.396401","longitude":"-97.878297"},{"duns_number":"002246916","products":["CLOBAZAM","CLOBAZAM ORAL SUSPENSION","CLOBAZAM TABLETS","SIMVASTATIN","TAMOXIFEN CITRATE","TAMOXIFEN CITRATE ORAL SOLUTION"],"primaryname":"MSN LABORATORIES PRIVATE LIMITED","add_country":"United States","latitude":"43.120924","longitude":"-76.197648"},{"duns_number":"002382612","products":["NITROGEN","OXYGEN"],"primaryname":"Dpt Laboratories, Ltd.","add_country":"United States","latitude":"40.206838","longitude":"-75.456308"},{"duns_number":"002546521","products":["ALBUTEROL","ALBUTEROL INHALATION SOLUTION","ALBUTEROL SULFATE","BACTERIOSTATIC SODIUM CHLORIDE INJECTION","BUDESONIDE","BUDESONIDE INHALATION SUSPENSION","IPRATROPIUM BROMIDE","IPRATROPIUM BROMIDE AND ALBUTEROL SULFATE INHALATION SOLUTION","IPRATROPIUM BROMIDE INHALATION SOLUTION","KETOROLAC TROMETHAMINE","KETOROLAC TROMETHAMINE INJECTION","SODIUM CHLORIDE","SODIUM CHLORIDE INJECTION"],"primaryname":"Matheson Tri-Gas, Inc.","add_country":"United States","latitude":"41.801424","longitude":"-71.439221"},{"duns_number":"002768951","products":["CAPECITABINE","CAPECITABINE TABLETS"],"primaryname":"3M Interamerica Inc","add_country":"United States","latitude":"37.921387","longitude":"-95.403178"},{"duns_number":"003071810","products":["OXYGEN"],"primaryname":"Ucb","add_country":"United States","latitude":"40.722256","longitude":"-73.722385"},{"duns_number":"003385275","products":["HELIUM","NITROGEN","NITROUS OXIDE","OXYGEN"],"primaryname":"RES-Care, Inc.","add_country":"United States","latitude":"36.544641","longitude":"-82.569155"},{"duns_number":"004174819","products":["OXYGEN"],"primaryname":"Praxair Distribution, Inc.","add_country":"United States","latitude":"40.5903","longitude":"-74.6238"},{"duns_number":"004290177","products":["DIMETHYL FUMARATE","DIMETHYL FUMARATE DELAYED-RELEASE CAPSULES"],"primaryname":"Norco, Inc.","add_country":"United States","latitude":"38.741067","longitude":"-82.985902"},{"duns_number":"004532065","products":["OXYGEN"],"primaryname":"Purac Biochem B.V.","add_country":"United States","latitude":"41.794343","longitude":"-72.664295"},{"duns_number":"005203476","products":["SULFAMETHOXAZOLE","SULFAMETHOXAZOLE AND TRIMETHOPRIM ORAL SUSPENSION","TRIMETHOPRIM","TRIMETHOPRIM SULFATE"],"primaryname":"Nexair, LLC","add_country":"United States","latitude":"42.354757","longitude":"-87.847161"},{"duns_number":"005224175","products":["CHLORPHENIRAMINE POLISTIREX","CODEINE","CODEINE PHOSPHATE","HYDROCODONE POLISTIREX","HYDROCODONE POLISTIREX AND CHLORPHENIRAMINE POLISTIREX EXTENDED-RELEASE SUSPENSION","PROMETHAZINE HYDROCHLORIDE","PROMETHAZINE HYDROCHLORIDE AND CODEINE PHOSPHATE  ORAL SOLUTION","THEOPHYLLINE","THEOPHYLLINE ORAL SOLUTION","THEOPHYLLINE SODIUM GLYCINATE","THEOPHYLLINE SODIUM GLYCINATE ORAL SOLUTION","THEOPHYLLINE SYRUP"],"primaryname":"Par Pharmaceutical, Inc.","add_country":"United States","latitude":"35.569037","longitude":"-77.570236"},{"duns_number":"005387188","products":["OXYGEN"],"primaryname":"Airgas Usa, LLC","add_country":"United States","latitude":"40.350198","longitude":"-74.617125"},{"duns_number":"006225106","products":["ALUMINUM CHLORIDE","BENZOCAINE","SODIUM FLUORIDE","SODIUM FLUORIDE GEL","STANNOUS FLUORIDE"],"primaryname":"Airgas Usa, LLC","add_country":"United States","latitude":"45.550028","longitude":"-94.18923"},{"duns_number":"006306922","products":["NITROGEN","OXYGEN"],"primaryname":"Span Packaging Services LLC","add_country":"United States","latitude":"38.699904","longitude":"-90.139679"},{"duns_number":"007470579","products":["OXYGEN"],"primaryname":"Pfizer Manufacturing Ireland Unlimited Company","add_country":"United States","latitude":"42.078544","longitude":"-87.917219"},{"duns_number":"007922888","products":["NITROGEN","OXYGEN"],"primaryname":"Norco, Inc.","add_country":"United States","latitude":"41.376326","longitude":"-81.511232"},{"duns_number":"008186371","products":["OXYGEN"],"primaryname":"SYNTHON HISPANIA SL","add_country":"United States","latitude":"30.814174","longitude":"-90.510619"},{"duns_number":"008728255","products":["HYDROCORTISONE","HYDROCORTISONE ACETATE CREAM","HYDROCORTISONE BUTYRATE CREAM","HYDROCORTISONE CREAM","HYDROCORTISONE HEMISUCCINATE","HYDROCORTISONE PROBUTATE CREAM","HYDROCORTISONE SODIUM SUCCINATE","HYDROCORTISONE VALERATE CREAM"],"primaryname":"Sandoz GmbH","add_country":"United States","latitude":"40.4027","longitude":"-84.772803"},{"duns_number":"008966082","products":["AZITHROMYCIN","AZITHROMYCIN FOR INJECTION","BACLOFEN","BACLOFEN INJECTION","CASPOFUNGIN ACETATE","CASPOFUNGIN FOR INJECTION","CLINDAMYCIN FOR INJECTION","CLINDAMYCIN HYDROCHLORIDE","CLINDAMYCIN INJECTION","CLINDAMYCIN PALMITATE HYDROCHLORIDE","CYANOCOBALAMIN","CYANOCOBALAMIN INJECTION","CYTARABINE","CYTARABINE FOR INJECTION","DAPTOMYCIN","DAPTOMYCIN FOR INJECTION","EPTIFIBATIDE","ESOMEPRAZOLE MAGNESIUM","ESOMEPRAZOLE SODIUM","ESOMEPRAZOLE SODIUM FOR INJECTION","ETOMIDATE","ETOMIDATE INJECTION","FAMOTIDINE","FAMOTIDINE INJECTION","GEMCITABINE FOR INJECTION","GEMCITABINE HYDROCHLORIDE","HEPARIN SODIUM","HEPARIN SODIUM INJECTION","MEDROXYPROGESTERONE ACETATE","MEDROXYPROGESTERONE ACETATE INJECTABLE SUSPENSION","MOXIFLOXACIN HYDROCHLORIDE","MOXIFLOXACIN IN SODIUM CHLORIDE INJECTION","NOREPINEPHRINE BITARTRATE","NOREPINEPHRINE BITARTRATE INJECTION","PROCHLORPERAZINE","PROCHLORPERAZINE EDISYLATE","PROCHLORPERAZINE EDISYLATE INJECTION","PROCHLORPERAZINE MALEATE","RIFAMPIN","RIFAMPIN FOR INJECTION","VANCOMYCIN","VANCOMYCIN HYDROCHLORIDE","VANCOMYCIN HYDROCHLORIDE FOR INJECTION","VANCOMYCIN INJECTION","VECURONIUM BROMIDE","VECURONIUM BROMIDE FOR INJECTION","ZOLEDRONIC ACID","ZOLEDRONIC ACID INJECTION"],"primaryname":"St. Marys Pharmacy, Inc.","add_country":"United States","latitude":"40.97727","longitude":"-80.297023"},{"duns_number":"010458487","products":["BUSULFAN","BUSULFAN INJECTION","CARMUSTINE","CARMUSTINE FOR INJECTION","CLOFARABINE","CLOFARABINE INJECTION","CYCLOPHOSPHAMIDE","CYCLOPHOSPHAMIDE FOR INJECTION","DOCETAXEL","DOCETAXEL INJECTION","DOXORUBICIN HYDROCHLORIDE","DOXORUBICIN HYDROCHLORIDE FOR INJECTION","DOXORUBICIN HYDROCHLORIDE PEGYLATED LIPOSOME INJECTION"],"primaryname":"Ingenus Pharmaceuticals Nj, LLC","add_country":"United States","latitude":"39.218908","longitude":"-81.504289"},{"duns_number":"010928740","products":["OXYGEN"],"primaryname":"Banner Health","add_country":"United States","latitude":"44.843181","longitude":"-93.790828"},{"duns_number":"011036910","products":["FERRIC CARBOXYMALTOSE","FERRIC CARBOXYMALTOSE INJECTION","IRON SUCROSE INJECTION"],"primaryname":"Halifax Medical Equipment Inc","add_country":"United States","latitude":"39.507716","longitude":"-74.934553"},{"duns_number":"012177531","products":["SUMATRIPTAN","SUMATRIPTAN INJECTION","SUMATRIPTAN SUCCINATE","TRIAMCINOLONE","TRIAMCINOLONE ACETONIDE"],"primaryname":"Novartis Corporation","add_country":"United States","latitude":"40.340852","longitude":"-74.603983"},{"duns_number":"014167995","products":["OXYGEN"],"primaryname":"PFIZER ASIA MANUFACTURING PTE. LTD.","add_country":"United States","latitude":"35.833835","longitude":"-78.812384"},{"duns_number":"015577484","products":["TESTOSTERONE","TESTOSTERONE IMPLANT"],"primaryname":"Matheson Tri-Gas, Inc.","add_country":"United States","latitude":"40.028019","longitude":"-86.138217"},{"duns_number":"016029732","products":["CHLORHEXIDINE GLUCONATE ORAL RINSE","CYCLOBENZAPRINE HYDROCHLORIDE","CYCLOBENZAPRINE HYDROCHLORIDE TABLETS","LIDOCAINE","LIDOCAINE OINTMENT"],"primaryname":"Genesis Alkali Wyoming, LP","add_country":"United States","latitude":"32.732809","longitude":"-101.948978"},{"duns_number":"018834333","products":["PHENDIMETRAZINE TARTRATE"],"primaryname":"Atlanta Medical Gas","add_country":"United States","latitude":"41.989167","longitude":"-72.599465"},{"duns_number":"019551467","products":["ULIPRISTAL ACETATE","ULIPRISTAL ACETATE TABLETS"],"primaryname":"Praxair Distribution, Inc.","add_country":"United States","latitude":"37.114395","longitude":"-85.964239"},{"duns_number":"019944953","products":["OXYGEN"],"primaryname":"Matheson Tri-Gas, Inc.","add_country":"United States","latitude":"38.480463","longitude":"-107.869456"},{"duns_number":"020023482","products":["HYDROQUINONE","HYDROQUINONE CREAM","METRONIDAZOLE","METRONIDAZOLE BENZOATE"],"primaryname":"MACFARLAN SMITH LIMITED","add_country":"United States","latitude":"42.323484","longitude":"-71.063112"},{"duns_number":"021680079","products":["OXYGEN"],"primaryname":"Lubbock Oxygen & Medical Gases, Inc.","add_country":"United States","latitude":"33.440602","longitude":"-94.017392"},{"duns_number":"021990552","products":["CARBON DIOXIDE","HELIUM","NITROUS OXIDE","OXYGEN"],"primaryname":"F.I.S. FABBRICA ITALIANA SINTETICI SPA","add_country":"United States","latitude":"47.063866","longitude":"-109.425659"},{"duns_number":"022754761","products":["OXYGEN"],"primaryname":"Airgas Usa, LLC","add_country":"United States","latitude":"33.558526","longitude":"-101.835663"},{"duns_number":"023414521","products":["NITROGEN","OXYGEN"],"primaryname":"Melo's Gas and Gear, Inc.","add_country":"United States","latitude":"43.126872","longitude":"-76.125003"},{"duns_number":"024091916","products":["OXYGEN"],"primaryname":"Airgas Usa, LLC","add_country":"United States","latitude":"40.028019","longitude":"-86.138217"},{"duns_number":"024555708","products":["ROSUVASTATIN CALCIUM","ROSUVASTATIN TABLETS"],"primaryname":"Norco, Inc.","add_country":"United States","latitude":"41.842481","longitude":"-72.495736"},{"duns_number":"024617409","products":["LEVOTHYROXINE SODIUM"],"primaryname":"LABORATOIRE UNITHER","add_country":"United States","latitude":"35.592635","longitude":"-82.606556"},{"duns_number":"025250655","products":["NITROGEN","OXYGEN"],"primaryname":"Oxypros, Inc.","add_country":"United States","latitude":"28.790185","longitude":"-96.98457"},{"duns_number":"025382276","products":["NITROGEN"],"primaryname":"Epien Medical, Inc.","add_country":"United States","latitude":"40.1336","longitude":"-87.619023"},{"duns_number":"026705236","products":["BRIMONIDINE TARTRATE","BRINZOLAMIDE","CALCIUM CHLORIDE","MAGNESIUM CHLORIDE","POTASSIUM CHLORIDE","SODIUM ACETATE","SODIUM CHLORIDE","SODIUM CITRATE"],"primaryname":"St. Peter's Health","add_country":"United States","latitude":"30.058248","longitude":"-99.162776"},{"duns_number":"027589894","products":["NITROUS OXIDE","OXYGEN"],"primaryname":"Keys Investment Properties, LLC","add_country":"United States","latitude":"46.603473","longitude":"-120.53591"},{"duns_number":"028180765","products":["OXYGEN"],"primaryname":"Airgas Usa, LLC","add_country":"United States","latitude":"42.92788","longitude":"-71.464986"},{"duns_number":"031018146","products":["NITROGEN","OXYGEN"],"primaryname":"EMCURE PHARMACEUTICALS LIMITED","add_country":"United States","latitude":"38.622746","longitude":"-90.286079"},{"duns_number":"031189020","products":["NITROGEN","OXYGEN"],"primaryname":"Airgas Usa, LLC","add_country":"United States","latitude":"39.806439","longitude":"-101.042415"},{"duns_number":"032849234","products":["OXYGEN"],"primaryname":"Purity Cylinder Gases, Inc.","add_country":"United States","latitude":"47.569934","longitude":"-122.686491"},{"duns_number":"034109918","products":["CLOPIDOGREL BISULFATE","CLOPIDOGREL TABLETS","FOLIC ACID","FOLIC ACID TABLETS","LABETALOL HYDROCHLORIDE","LABETALOL HYDROCHLORIDE TABLETS"],"primaryname":"Matheson Tri-Gas, Inc.","add_country":"United States","latitude":"34.758836","longitude":"-87.69848"},{"duns_number":"034313825","products":["OXYGEN"],"primaryname":"Patheon API Manufacturing, Inc.","add_country":"United States","latitude":"30.209151","longitude":"-93.333214"},{"duns_number":"035762590","products":["NITROGEN","OXYGEN"],"primaryname":"Catalent, Inc.","add_country":"United States","latitude":"32.307666","longitude":"-106.795855"},{"duns_number":"036146249","products":["ADAPALENE","ADAPALENE  CREAM","ADAPALENE AND BENZOYL PEROXIDE GEL","ADAPALENE GEL","BRIMONIDINE TOPICAL GEL","CALCITRIOL","CALCITRIOL OINTMENT","CLOBETASOL PROPIONATE","CLOBETASOL PROPIONATE LOTION","DESONIDE","DESONIDE CREAM","DESONIDE LOTION","FLUOCINOLONE ACETONIDE","FLUOCINOLONE ACETONIDE, HYDROQUINONE AND TRETINOIN CREAM","HYDROQUINONE","IVERMECTIN","IVERMECTIN CREAM","METRONIDAZOLE","METRONIDAZOLE BENZOATE","TRETINOIN","TRIFAROTENE"],"primaryname":"ALMIRALL HERMAL GmbH","add_country":"United States","latitude":"36.759289","longitude":"-90.406052"},{"duns_number":"037295749","products":["OXYGEN"],"primaryname":"Vantage Dme Partnership","add_country":"United States","latitude":"40.692712","longitude":"-89.542481"},{"duns_number":"037989415","products":["OXYGEN"],"primaryname":"Linde Inc.","add_country":"United States","latitude":"35.435225","longitude":"-97.640781"},{"duns_number":"038146568","products":["RILUZOLE","RILUZOLE TABLETS"],"primaryname":"Airgas Usa, LLC","add_country":"United States","latitude":"36.736093","longitude":"-108.181382"},{"duns_number":"039755707","products":["HYDROXOCOBALAMIN"],"primaryname":"Elizabeth Actavis","add_country":"United States","latitude":"40.055043","longitude":"-76.327817"},{"duns_number":"041152018","products":["ACYCLOVIR","ACYCLOVIR CAPSULES","ACYCLOVIR TABLETS","FLUOXETINE CAPSULES","GEMFIBROZIL","GEMFIBROZIL TABLETS","GLYBURIDE","GLYBURIDE TABLETS","HYDRALAZINE HYDROCHLORIDE","HYDRALAZINE HYDROCHLORIDE TABLETS","OFLOXACIN","OFLOXACIN TABLETS"],"primaryname":"Praxair Distribution, Inc.","add_country":"United States","latitude":"35.977292","longitude":"-83.825729"},{"duns_number":"044673148","products":["RISPERIDONE","RISPERIDONE FOR EXTENDED-RELEASE INJECTABLE SUSPENSION"],"primaryname":"Doh Central Pharmacy","add_country":"United States","latitude":"42.216728","longitude":"-89.025844"},{"duns_number":"046172334","products":["NITROGEN"],"primaryname":"Gladwin Area Home Care, Inc.","add_country":"United States","latitude":"40.729288","longitude":"-73.928786"},{"duns_number":"048861798","products":["AMOXICILLIN","AMOXICILLIN AND CLAVULANATE POTASSIUM FOR ORAL SUSPENSION","AMOXICILLIN AND CLAVULANATE POTASSIUM TABLETS","AMOXICILLIN AND CLAVULANIC ACID EXTENDED-RELEASE TABLETS","CLAVULANATE POTASSIUM"],"primaryname":"Airgas Usa, LLC","add_country":"United States","latitude":"44.687029","longitude":"-73.507417"},{"duns_number":"049156333","products":["BISOPROLOL FUMARATE","BISOPROLOL FUMARATE TABLETS","CLONIDINE","CLONIDINE HYDROCHLORIDE","CLONIDINE HYDROCHLORIDE TABLETS","CYCLOBENZAPRINE HYDROCHLORIDE","CYCLOBENZAPRINE HYDROCHLORIDE TABLETS","DONEPEZIL HYDROCHLORIDE","DONEPEZIL HYDROCHLORIDE ORALLY DISINTEGRATING TABLETS","DONEPEZIL HYDROCHLORIDE TABLETS","EPLERENONE","EPLERENONE TABLETS","LAMOTRIGINE","LAMOTRIGINE TABLETS","MELOXICAM","MELOXICAM TABLETS","MONTELUKAST SODIUM","MONTELUKAST SODIUM CHEWABLE TABLETS","MONTELUKAST SODIUM TABLETS","PIROXICAM","PIROXICAM CAPSULES","PRAMIPEXOLE DIHYDROCHLORIDE","RIZATRIPTAN BENZOATE","RIZATRIPTAN BENZOATE ORALLY DISINTEGRATING TABLETS","RIZATRIPTAN BENZOATE TABLETS","SOLIFENACIN SUCCINATE","SOLIFENACIN SUCCINATE TABLETS","TIZANIDINE HYDROCHLORIDE","TIZANIDINE TABLETS","TOLTERODINE TARTRATE","ZALEPLON","ZALEPLON CAPSULES"],"primaryname":"Sandoz Canada Inc","add_country":"United States","latitude":"30.322472","longitude":"-81.686367"},{"duns_number":"049495666","products":["CHORIONIC GONADOTROPIN","CHORIONIC GONADOTROPIN FOR INJECTION","DROSPIRENONE","ESTRADIOL","ESTRADIOL ACETATE","ESTRADIOL VAGINAL CREAM","ETHINYL ESTRADIOL","ETHINYL ESTRADIOL TABLETS","LEVONORGESTREL","LEVONORGESTREL AND ETHINYL ESTRADIOL TABLETS","NORETHINDRONE","NORGESTIMATE","ROCURONIUM BROMIDE"],"primaryname":"Gallup Welders Supply, Inc.","add_country":"United States","latitude":"18.436672","longitude":"-66.154"},{"duns_number":"050594555","products":["BENOXINATE HYDROCHLORIDE","CIPROFLOXACIN","CIPROFLOXACIN HYDROCHLORIDE","CIPROFLOXACIN OPHTHALMIC SOLUTION","FLUORESCEIN","FLUORESCEIN SODIUM","FLUORESCEIN SODIUM AND BENOXINATE HYDROCHLORIDE OPHTHALMIC SOLUTION","FLUORESCEIN SODIUM AND PROPARACAINE HYDROCHLORIDE OPHTHALMIC SOLUTION","PROPARACAINE HYDROCHLORIDE"],"primaryname":"LABORATORIOS RUBIO SA","add_country":"United States","latitude":"40.816539","longitude":"-73.247418"},{"duns_number":"051105773","products":["ISRADIPINE","ISRADIPINE CAPSULES"],"primaryname":"Ucg Georgia, LLC","add_country":"United States","latitude":"32.639936","longitude":"-96.924301"},{"duns_number":"053030366","products":["CARBON DIOXIDE","NITROGEN","NITROUS OXIDE","OXYGEN"],"primaryname":"Syntho Pharmaceuticals, Inc.","add_country":"United States","latitude":"42.307641","longitude":"-74.016225"},{"duns_number":"054429691","products":["OXYGEN"],"primaryname":"Anchen Pharmaceuticals, Inc.","add_country":"United States","latitude":"42.149418","longitude":"-72.529404"},{"duns_number":"054877498","products":["AMPICILLIN","AMPICILLIN AND SULBACTAM FOR INJECTION","AMPICILLIN FOR INJECTABLE SUSPENSION","AMPICILLIN FOR INJECTION","AMPICILLIN SODIUM","NAFCILLIN FOR INJECTION","NAFCILLIN SODIUM","OXACILLIN FOR INJECTION","OXACILLIN INJECTION","OXACILLIN SODIUM","PIPERACILLIN","PIPERACILLIN AND TAZOBACTAM FOR INJECTION","PIPERACILLIN SODIUM","SULBACTAM SODIUM","TAZOBACTAM"],"primaryname":"Airgas Usa, LLC","add_country":"United States","latitude":"40.48285","longitude":"-79.954748"},{"duns_number":"054897984","products":["OXYGEN"],"primaryname":"Linde Inc.","add_country":"United States","latitude":"38.688284","longitude":"-90.398599"},{"duns_number":"054913850","products":["CLOBAZAM","CLOBAZAM TABLETS","DEFERASIROX","DEFERASIROX TABLETS","FAMOTIDINE","FAMOTIDINE TABLETS","LAMIVUDINE","LINEZOLID","PIOGLITAZONE HYDROCHLORIDE","PIOGLITAZONE TABLETS","PREGABALIN","PREGABALIN CAPSULES","TENOFOVIR DISOPROXIL FUMARATE"],"primaryname":"AMNEAL PHARMACEUTICALS PRIVATE LIMITED","add_country":"United States","latitude":"39.543067","longitude":"-76.091569"},{"duns_number":"056593049","products":["OXYGEN"],"primaryname":"SQUARE PHARMACEUTICALS LIMITED","add_country":"United States","latitude":"32.804486","longitude":"-116.97557"},{"duns_number":"056698080","products":["AZITHROMYCIN","AZITHROMYCIN FOR INJECTION","AZITHROMYCIN TABLETS","BUPROPION HYDROBROMIDE EXTENDED-RELEASE TABLETS","BUPROPION HYDROCHLORIDE","BUPROPION HYDROCHLORIDE EXTENDED-RELEASE TABLETS","CELECOXIB","CELECOXIB CAPSULES","CLOPIDOGREL BISULFATE","CLOPIDOGREL TABLETS","GABAPENTIN","GABAPENTIN CAPSULES","GABAPENTIN TABLETS","MELOXICAM","MELOXICAM TABLETS","METFORMIN HYDROCHLORIDE","METFORMIN HYDROCHLORIDE EXTENDED-RELEASE TABLETS","METFORMIN HYDROCHLORIDE TABLETS","TRAMADOL HYDROCHLORIDE","TRAMADOL HYDROCHLORIDE TABLETS"],"primaryname":"Life Care Home Services of Northwestern Pennsylvania, LLP","add_country":"United States","latitude":"28.543363","longitude":"-81.149933"},{"duns_number":"057891053","products":["CARBON DIOXIDE"],"primaryname":"Airgas Usa, LLC","add_country":"United States","latitude":"37.837848","longitude":"-94.355272"},{"duns_number":"058209289","products":["OXYGEN"],"primaryname":"Cilag AG","add_country":"United States","latitude":"35.154806","longitude":"-107.818311"},{"duns_number":"059140764","products":["ATROPINE","ATROPINE SULFATE","ATROPINE SULFATE INJECTION","DIAZEPAM","DIAZEPAM INJECTION","PRALIDOXIME CHLORIDE"],"primaryname":"MYLAN LABORATORIES LIMITED","add_country":"United States","latitude":"35.834007","longitude":"-82.001403"},{"duns_number":"059209218","products":["ESCITALOPRAM OXALATE","ESCITALOPRAM TABLETS","QUETIAPINE FUMARATE","QUETIAPINE TABLETS"],"primaryname":"Machine & Welding Supply Company","add_country":"United States","latitude":"32.69624","longitude":"-117.14071"},{"duns_number":"059231485","products":["ALBUTEROL","ALBUTEROL INHALATION AEROSOL","ALBUTEROL SULFATE","ESTRADIOL","ESTRADIOL ACETATE","ESTRADIOL AND LEVONORGESTREL TRANSDERMAL SYSTEM","ESTRADIOL TRANSDERMAL SYSTEM","IPRATROPIUM BROMIDE","LEVONORGESTREL"],"primaryname":"Airgas Usa, LLC","add_country":"United States","latitude":"34.920486","longitude":"-120.447971"},{"duns_number":"059819680","products":["NITROGEN","OXYGEN"],"primaryname":"Hospice Express, Inc.","add_country":"United States","latitude":"33.959722","longitude":"-118.065662"},{"duns_number":"059820498","products":["NITROGEN","OXYGEN"],"primaryname":"GLENMARK PHARMACEUTICALS LIMITED","add_country":"United States","latitude":"34.123419","longitude":"-117.977476"},{"duns_number":"060278389","products":["METHYLPREDNISOLONE","METHYLPREDNISOLONE ACETATE INJECTABLE SUSPENSION","METHYLPREDNISOLONE SODIUM SUCCINATE","METHYLPREDNISOLONE SODIUM SUCCINATE FOR INJECTION"],"primaryname":"Carelinc Medical Equipment & Supply Co., L.L.C.","add_country":"United States","latitude":"47.528835","longitude":"-114.106297"},{"duns_number":"061729866","products":["ALCOHOL","DEHYDRATED ALCOHOL"],"primaryname":"Linde Inc.","add_country":"United States","latitude":"40.33738","longitude":"-74.66881"},{"duns_number":"061878146","products":["OXYGEN"],"primaryname":"Haupt Pharma GmbH","add_country":"United States","latitude":"36.075934","longitude":"-86.927211"},{"duns_number":"062514455","products":["CLOBETASOL PROPIONATE","CLOBETASOL PROPIONATE CREAM"],"primaryname":"Shanghai Roche  Pharmaceuticals Co., Ltd.","add_country":"United States","latitude":"43.876057","longitude":"-85.510483"},{"duns_number":"065591187","products":["LEVONORGESTREL","LEVONORGESTREL INTRAUTERINE SYSTEM"],"primaryname":"Airgas Usa, LLC","add_country":"United States","latitude":"40.613363","longitude":"-75.335405"},{"duns_number":"065780215","products":["OXYGEN"],"primaryname":"Stateserv Medical of Colorado, L.L.C.","add_country":"United States","latitude":"42.556704","longitude":"-71.753493"},{"duns_number":"066269342","products":["OXYGEN"],"primaryname":"Trirx Huntsville Pharmaceutical Services, LLC","add_country":"United States","latitude":null,"longitude":null},{"duns_number":"066397297","products":["DULOXETINE DELAYED-RELEASE CAPSULES","DULOXETINE HYDROCHLORIDE","OLANZAPINE","OLANZAPINE PAMOATE","OLANZAPINE TABLETS"],"primaryname":"Genzyme Corporation","add_country":"United States","latitude":"42.410458","longitude":"-71.089742"},{"duns_number":"066660275","products":["CARBON DIOXIDE","HELIUM","NITROGEN","NITROUS OXIDE","OXYGEN"],"primaryname":"Polypeptide Laboratories (Sweden) AB","add_country":"United States","latitude":"32.908844","longitude":"-96.656796"},{"duns_number":"069239874","products":["LIDOCAINE"],"primaryname":"Ingenus Pharmaceuticals GmbH","add_country":"United States","latitude":"30.55032","longitude":"-87.280276"},{"duns_number":"070582747","products":["CARBAMAZEPINE","CARBAMAZEPINE TABLETS","CITALOPRAM HYDROBROMIDE","CITALOPRAM TABLETS","CLOPIDOGREL BISULFATE","CLOPIDOGREL TABLETS","DIMETHYL ISOSORBIDE","DONEPEZIL HYDROCHLORIDE","DONEPEZIL HYDROCHLORIDE TABLETS","ESCITALOPRAM OXALATE","ESCITALOPRAM TABLETS","FENOFIBRATE","FENOFIBRATE CAPSULES","HYDROCHLOROTHIAZIDE","ISOSORBIDE MONONITRATE EXTENDED-RELEASE TABLETS","LAMOTRIGINE","LAMOTRIGINE TABLETS","LEVETIRACETAM","LEVETIRACETAM TABLETS","LOSARTAN POTASSIUM","LOSARTAN POTASSIUM AND HYDROCHLOROTHIAZIDE TABLETS","LOSARTAN POTASSIUM TABLETS","MINOCYCLINE HYDROCHLORIDE","MINOCYCLINE HYDROCHLORIDE CAPSULES","MINOCYCLINE HYDROCHLORIDE TABLETS","MONTELUKAST SODIUM","MONTELUKAST SODIUM CHEWABLE TABLETS","MONTELUKAST SODIUM ORAL GRANULES","MONTELUKAST SODIUM TABLETS","PRAMIPEXOLE DIHYDROCHLORIDE","TELMISARTAN","TELMISARTAN AND HYDROCHLOROTHIAZIDE TABLETS","TELMISARTAN TABLETS","ZOLPIDEM TARTRATE","ZOLPIDEM TARTRATE TABLETS"],"primaryname":"Andy-OXY Co., Inc.","add_country":"United States","latitude":"40.043899","longitude":"-75.580442"},{"duns_number":"071406888","products":["NITROGEN"],"primaryname":"ALKEM LAB","add_country":"United States","latitude":"44.526061","longitude":"-109.073724"},{"duns_number":"073903937","products":["OXYGEN"],"primaryname":"Airway Oxygen, Inc.","add_country":"United States","latitude":"38.5891","longitude":"-121.3016"},{"duns_number":"078474890","products":["CARBON DIOXIDE","HELIUM","NITROGEN","NITROUS OXIDE","OXYGEN"],"primaryname":"MANKIND PHARMA LIMITED","add_country":"United States","latitude":"42.381724","longitude":"-83.23663"},{"duns_number":"078578534","products":["OXYGEN"],"primaryname":"Airgas Usa, LLC","add_country":"United States","latitude":"40.726407","longitude":"-111.981389"},{"duns_number":"078584431","products":["VERTEPORFIN","VERTEPORFIN FOR INJECTION"],"primaryname":"Dme Solutions, Inc","add_country":"United States","latitude":"36.055358","longitude":"-94.149488"},{"duns_number":"078602180","products":["OXYGEN"],"primaryname":"Solco Healthcare Us, LLC","add_country":"United States","latitude":"40.448176","longitude":"-74.41657"},{"duns_number":"078635656","products":["NITROGEN"],"primaryname":"Matheson Tri-Gas, Inc.","add_country":"United States","latitude":"38.598423","longitude":"-76.992765"},{"duns_number":"078691540","products":["NITROGEN","OXYGEN"],"primaryname":"Airgas Usa, LLC","add_country":"United States","latitude":"44.068442","longitude":"-91.706957"},{"duns_number":"078692645","products":["NITROGEN","OXYGEN"],"primaryname":"Matheson Tri-Gas, Inc.","add_country":"United States","latitude":"35.016109","longitude":"-85.274533"},{"duns_number":"078782319","products":["OXYGEN"],"primaryname":"ALKEM LABORATORIES LIMITED","add_country":"United States","latitude":"37.695203","longitude":"-97.326527"},{"duns_number":"078803381","products":["CARBON DIOXIDE","HELIUM","NITROGEN","NITROUS OXIDE","OXYGEN"],"primaryname":"Odyssea Pharma","add_country":"United States","latitude":"35.356389","longitude":"-94.413184"},{"duns_number":"078806971","products":["METFORMIN HYDROCHLORIDE","METFORMIN HYDROCHLORIDE EXTENDED-RELEASE TABLETS","POSACONAZOLE","POSACONAZOLE DELAYED-RELEASE TABLETS","PROPAFENONE HYDROCHLORIDE","PROPAFENONE HYDROCHLORIDE EXTENDED-RELEASE CAPSULES","QUETIAPINE EXTENDED-RELEASE TABLETS","QUETIAPINE FUMARATE","SEVELAMER CARBONATE","SEVELAMER CARBONATE TABLETS","SEVELAMER HYDROCHLORIDE TABLETS"],"primaryname":"Landauer-Metropolitan, Inc.","add_country":"United States","latitude":"47.107773","longitude":"-104.704365"},{"duns_number":"078834955","products":["NITROGEN","OXYGEN"],"primaryname":"Matheson Tri-Gas, Inc.","add_country":"United States","latitude":"38.597748","longitude":"-90.490939"},{"duns_number":"078883523","products":["NITROGEN","OXYGEN"],"primaryname":"Linde Inc.","add_country":"United States","latitude":"46.616532","longitude":"-120.530363"},{"duns_number":"079170190","products":["NITROGEN","OXYGEN"],"primaryname":"Matheson Tri-Gas, Inc.","add_country":"United States","latitude":"33.29185","longitude":"-111.584865"},{"duns_number":"079214355","products":["CLARITHROMYCIN","CLARITHROMYCIN EXTENDED-RELEASE TABLETS","TROSPIUM CHLORIDE","VALGANCICLOVIR FOR ORAL SOLUTION","VALGANCICLOVIR HYDROCHLORIDE"],"primaryname":"Fresenius Kabi Usa, LLC","add_country":"United States","latitude":"39.915479","longitude":"-74.976447"},{"duns_number":"079358924","products":["FENOFIBRATE","FENOFIBRATE TABLETS","FENOFIBRIC ACID TABLETS"],"primaryname":"Brevard Medical Equipment Inc","add_country":"United States","latitude":"40.651893","longitude":"-73.573473"},{"duns_number":"079372105","products":["NITROGEN","OXYGEN"],"primaryname":"Airweld, Inc.","add_country":"United States","latitude":"25.976766","longitude":"-80.286221"},{"duns_number":"079398730","products":["NITROGEN"],"primaryname":"Airgas Usa, LLC","add_country":"United States","latitude":"29.665066","longitude":"-95.570593"},{"duns_number":"079479993","products":["NITROGEN","OXYGEN"],"primaryname":"Matheson Tri-Gas, Inc.","add_country":"United States","latitude":"39.19293","longitude":"-96.599941"},{"duns_number":"079481211","products":["OXYGEN"],"primaryname":"Corden Pharma GmbH","add_country":"United States","latitude":"29.702418","longitude":"-95.051829"},{"duns_number":"079510999","products":["OXYGEN"],"primaryname":"CSPC OUYI PHARMACEUTICAL CO.,LTD.","add_country":"United States","latitude":"40.868447","longitude":"-74.443727"},{"duns_number":"079531825","products":["OXYGEN"],"primaryname":"NATCO PHARMA LIMITED","add_country":"United States","latitude":"40.446477","longitude":"-79.759687"},{"duns_number":"079549773","products":["OXYGEN"],"primaryname":"ANI Pharmaceuticals Canada Inc","add_country":"United States","latitude":"40.54203","longitude":"-111.938743"},{"duns_number":"079570216","products":["NAPROXEN","NAPROXEN SODIUM","RILPIVIRINE","SUMATRIPTAN","SUMATRIPTAN SUCCINATE"],"primaryname":"Teligent, Inc.","add_country":"United States","latitude":"37.120012","longitude":"-113.520796"},{"duns_number":"079575060","products":["LEVODOPA"],"primaryname":"Airgas - East, Inc.","add_country":"United States","latitude":"40.858039","longitude":"-74.314758"},{"duns_number":"079607617","products":["CEPHALEXIN","CEPHALEXIN FOR ORAL SUSPENSION","CEPHALEXIN HYDROCHLORIDE"],"primaryname":"Praxair Distribution, Inc.","add_country":"United States","latitude":"42.851945","longitude":"-106.302568"},{"duns_number":"079607622","products":["OXYGEN"],"primaryname":"Catalent Pharma Solutions, Inc.","add_country":"United States","latitude":"37.312772","longitude":"-79.933125"},{"duns_number":"079611085","products":["NITROGEN","OXYGEN"],"primaryname":"Westminster Pharmaceuticals, LLC","add_country":"United States","latitude":"41.354663","longitude":"-86.361708"},{"duns_number":"079681137","products":["CARBON DIOXIDE","HELIUM","NITROGEN","NITROUS OXIDE","OXYGEN"],"primaryname":"James Alexander Corp","add_country":"United States","latitude":"40.868447","longitude":"-74.443727"},{"duns_number":"079726629","products":["NITROGEN"],"primaryname":"RECKITT BENCKISER HEALTHCARE INTERNATIONAL LIMITED","add_country":"United States","latitude":"33.909364","longitude":"-117.449762"},{"duns_number":"079819927","products":["NITROGEN"],"primaryname":"Techgas Inc","add_country":"United States","latitude":"39.884364","longitude":"-84.183658"},{"duns_number":"079823130","products":["BENOXINATE HYDROCHLORIDE","FLUORESCEIN","FLUORESCEIN SODIUM","FLUORESCEIN SODIUM AND BENOXINATE HYDROCHLORIDE OPHTHALMIC SOLUTION","GANCICLOVIR","GANCICLOVIR OPHTHALMIC GEL","GANCICLOVIR SODIUM","HYALURONIDASE","HYALURONIDASE INJECTION","SODIUM BICARBONATE","SODIUM BICARBONATE INJECTION","SODIUM TETRADECYL SULFATE INJECTION"],"primaryname":"Founders Healthcare, L.L.C.","add_country":"United States","latitude":"40.596252","longitude":"-74.696181"},{"duns_number":"079833109","products":["ESTRADIOL","ESTRADIOL ACETATE","ESTRADIOL VAGINAL INSERTS","RIVAROXABAN","RIVAROXABAN TABLETS"],"primaryname":"Central-Mcgowan, Inc.","add_country":"United States","latitude":"38.840051","longitude":"-97.624713"},{"duns_number":"079854623","products":["OXYGEN"],"primaryname":"Airgas Usa, LLC","add_country":"United States","latitude":"40.593017","longitude":"-75.575991"},{"duns_number":"079930807","products":["CARBIDOPA","ENTACAPONE","ENTACAPONE TABLETS","FLUOXETINE TABLETS","LEVODOPA","METHOTREXATE","METHOTREXATE TABLETS"],"primaryname":"Airgas Usa, LLC","add_country":"United States","latitude":"30.535325","longitude":"-92.102512"},{"duns_number":"079955018","products":["ROCURONIUM BROMIDE"],"primaryname":"Oxford Pharmaceuticals, LLC","add_country":"United States","latitude":"37.286481","longitude":"-120.510331"},{"duns_number":"080012315","products":["OXYGEN"],"primaryname":"Airgas Usa, LLC","add_country":"United States","latitude":"46.046848","longitude":"-118.356362"},{"duns_number":"080088396","products":["AMPHETAMINE SULFATE","AMPHETAMINE SULFATE TABLETS","ASPIRIN","CARISOPRODOL","CARISOPRODOL TABLETS","CARISOPRODOL, ASPIRIN, AND CODEINE PHOSPHATE TABLETS","CEVIMELINE HYDROCHLORIDE","CEVIMELINE HYDROCHLORIDE CAPSULES","CHLORTHALIDONE","CHLORTHALIDONE TABLETS","CODEINE","CODEINE PHOSPHATE","COLCHICINE","CYPROHEPTADINE HYDROCHLORIDE","CYPROHEPTADINE HYDROCHLORIDE TABLETS","DESIPRAMINE HYDROCHLORIDE","DESIPRAMINE HYDROCHLORIDE TABLETS","DIBASIC SODIUM PHOSPHATE","LEUCOVORIN CALCIUM","LEUCOVORIN CALCIUM TABLETS","METHENAMINE","METHENAMINE HIPPURATE","METHENAMINE HIPPURATE TABLETS","METHENAMINE MANDELATE TABLETS","METHENAMINE TABLETS","METHYLPREDNISOLONE","METHYLPREDNISOLONE SODIUM SUCCINATE","METHYLPREDNISOLONE TABLETS","MEXILETINE HYDROCHLORIDE","MEXILETINE HYDROCHLORIDE CAPSULES","MONOBASIC SODIUM PHOSPHATE","NADOLOL","NADOLOL TABLETS","NITROGLYCERIN SUBLINGUAL TABLETS","PERPHENAZINE","PERPHENAZINE TABLETS","PHENTERMINE HYDROCHLORIDE","PHENTERMINE HYDROCHLORIDE TABLETS","PRIMAQUINE PHOSPHATE","PRIMAQUINE PHOSPHATE TABLETS","PROBENECID","PROBENECID AND COLCHICINE TABLETS","QUININE SULFATE","QUININE SULFATE CAPSULES","SELEGILINE HYDROCHLORIDE","SELEGILINE HYDROCHLORIDE CAPSULES","TETRABENAZINE","TETRABENAZINE TABLETS","TIZANIDINE CAPSULES","TIZANIDINE HYDROCHLORIDE","TRIAZOLAM","TRIAZOLAM TABLETS"],"primaryname":"Ilmo Products Company","add_country":"United States","latitude":"33.656379","longitude":"-83.992362"},{"duns_number":"080122594","products":["NITROGEN","OXYGEN"],"primaryname":"Praxair Distribution, Inc.","add_country":"United States","latitude":"42.511615","longitude":"-71.244639"},{"duns_number":"080136787","products":["METRELEPTIN","METRELEPTIN FOR INJECTION"],"primaryname":"Oxarc, Inc.","add_country":"United States","latitude":"42.200139","longitude":"-87.886258"},{"duns_number":"080230346","products":["NITROGEN"],"primaryname":"HELSINN BIREX PHARMACEUTICALS LIMITED","add_country":"United States","latitude":"18.442","longitude":"-66.2812"},{"duns_number":"080252343","products":["NITROGEN","OXYGEN"],"primaryname":"Oz ARC\/Gas Equipment & Supply, Inc.","add_country":"United States","latitude":"35.653959","longitude":"-89.948481"},{"duns_number":"080268334","products":["CARBON DIOXIDE"],"primaryname":"Founders Healthcare, L.L.C.","add_country":"United States","latitude":"40.66318","longitude":"-74.413645"},{"duns_number":"080309021","products":["OXYGEN"],"primaryname":"Praxair Distribution, Inc.","add_country":"United States","latitude":"42.713883","longitude":"-73.843503"},{"duns_number":"080866709","products":["NITROGEN"],"primaryname":"Xgen Pharmaceuticals Djb, Inc.","add_country":"United States","latitude":"34.854318","longitude":"-82.015445"},{"duns_number":"080934126","products":["OXYGEN"],"primaryname":"JUBILANT GENERICS LIMITED","add_country":"United States","latitude":"35.464976","longitude":"-82.528319"},{"duns_number":"081154447","products":["ASCORBIC ACID","BIOTIN","CHOLECALCIFEROL","CYANOCOBALAMIN","DEXPANTHENOL","FOLIC ACID","NIACINAMIDE","PHYTONADIONE","PYRIDOXINE HYDROCHLORIDE","RIBOFLAVIN","SUCCINYLCHOLINE CHLORIDE","SUCCINYLCHOLINE CHLORIDE INJECTION","THIAMINE HYDROCHLORIDE","VITAMIN A"],"primaryname":"Stason Pharmaceuticals, Inc.","add_country":"United States","latitude":"40.818841","longitude":"-73.257614"},{"duns_number":"081274773","products":["OXYGEN"],"primaryname":"Linde Gas North America LLC","add_country":"United States","latitude":"41.785365","longitude":"-71.076804"},{"duns_number":"082728627","products":["OXYGEN"],"primaryname":"Airgas Usa, LLC","add_country":"United States","latitude":"41.857172","longitude":"-103.636364"},{"duns_number":"085117265","products":["OXYGEN"],"primaryname":"Linde Inc.","add_country":"United States","latitude":"36.796595","longitude":"-76.347358"},{"duns_number":"085551877","products":["CARBON DIOXIDE","NITROGEN","OXYGEN"],"primaryname":"Olympic Ambulance Service, Inc.","add_country":"United States","latitude":"30.12105","longitude":"-90.869185"},{"duns_number":"085779403","products":["MICONAZOLE","MICONAZOLE NITRATE","PETROLATUM","WHITE PETROLATUM","ZINC OXIDE"],"primaryname":"Stat Medical Supplies, Inc","add_country":"United States","latitude":"33.548818","longitude":"-101.819784"},{"duns_number":"088805734","products":["NITROGEN"],"primaryname":"PHARMAZELL (INDIA) PRIVATE LIMITED","add_country":"United States","latitude":"40.335382","longitude":"-74.593536"},{"duns_number":"089590731","products":["CYCLOBENZAPRINE HYDROCHLORIDE","CYCLOBENZAPRINE HYDROCHLORIDE TABLETS"],"primaryname":"Certified Respiratory Services Inc","add_country":"United States","latitude":"44.162653","longitude":"-87.559815"},{"duns_number":"089901037","products":["FOSAPREPITANT DIMEGLUMINE","FOSAPREPITANT FOR INJECTION"],"primaryname":"Dillon Medical Supply, Inc.","add_country":"United States","latitude":"36.330007","longitude":"-79.652012"},{"duns_number":"090586962","products":["OCTREOTIDE ACETATE"],"primaryname":"Pacira Biosciences Inc","add_country":"United States","latitude":"32.414675","longitude":"-104.226445"},{"duns_number":"094605920","products":["BREMELANOTIDE ACETATE","EPINEPHRINE","EPINEPHRINE INJECTION","GLUCAGON","GLUCAGON FOR INJECTION"],"primaryname":"Linde Gas North America LLC","add_country":"United States","latitude":"30.432844","longitude":"-84.338711"},{"duns_number":"097133578","products":["OXYGEN"],"primaryname":"INDIAN TRADERS, JADCHERLA","add_country":"United States","latitude":"27.3269","longitude":"-80.3994"},{"duns_number":"097630693","products":["CEFOTAXIME FOR INJECTION","CEFOTAXIME INJECTION","CEFOTAXIME SODIUM","CEFPROZIL","CEFPROZIL TABLETS","CEFTRIAXONE FOR INJECTION","CEFTRIAXONE SODIUM","CEFUROXIME AXETIL","CEFUROXIME AXETIL TABLETS","CEFUROXIME SODIUM"],"primaryname":"BAXTER HEALTHCARE PTY LTD","add_country":"United States","latitude":"34.763136","longitude":"-82.362092"},{"duns_number":"098136096","products":["OXYGEN"],"primaryname":"SGS INSTITUT FRESENIUS GmbH","add_country":"United States","latitude":"40.462565","longitude":"-86.109595"},{"duns_number":"098574643","products":["CARBON DIOXIDE","HELIUM","NITROGEN","NITROUS OXIDE","OXYGEN"],"primaryname":"Airgas Usa, LLC","add_country":"United States","latitude":"35.322007","longitude":"-94.401742"},{"duns_number":"102278991","products":["BRENTUXIMAB VEDOTIN","BRENTUXIMAB VEDOTIN FOR INJECTION","ERIBULIN MESYLATE","ERIBULIN MESYLATE INJECTION","THIOTEPA","THIOTEPA FOR INJECTION","VALRUBICIN","VALRUBICIN INTRAVESICAL SOLUTION"],"primaryname":"Home Care Specialists Inc.","add_country":"United States","latitude":"46.882263","longitude":"-96.810663"},{"duns_number":"102357936","products":["ALPRAZOLAM","ALPRAZOLAM EXTENDED-RELEASE TABLETS","ALPRAZOLAM ORALLY-DISINTEGRATING TABLETS","ALPRAZOLAM TABLETS","AMPHETAMINE MIXED SALTS EXTENDED-RELEASE CAPSULES","AMPHETAMINE SULFATE","BUPRENORPHINE AND NALOXONE SUBLINGUAL TABLETS","BUPRENORPHINE HYDROCHLORIDE","BUPRENORPHINE SUBLINGUAL TABLETS","CARBIDOPA","CARBIDOPA AND LEVODOPA TABLETS","CLONAZEPAM","CLONAZEPAM TABLETS","CLONIDINE","CLONIDINE HYDROCHLORIDE","CLONIDINE HYDROCHLORIDE EXTENDED-RELEASE TABLETS","CLONIDINE HYDROCHLORIDE TABLETS","DEFERASIROX","DEFERASIROX TABLETS","DEXTROAMPHETAMINE SULFATE","DICLOFENAC SODIUM","DICLOFENAC SODIUM DELAYED-RELEASE TABLETS","DILTIAZEM HYDROCHLORIDE","DILTIAZEM HYDROCHLORIDE EXTENDED-RELEASE CAPSULES","DIMETHYL ISOSORBIDE","DULOXETINE DELAYED-RELEASE CAPSULES","DULOXETINE HYDROCHLORIDE","FLUVOXAMINE MALEATE","GUANFACINE EXTENDED-RELEASE TABLETS","GUANFACINE HYDROCHLORIDE","HYDROCHLOROTHIAZIDE","HYDROCHLOROTHIAZIDE TABLETS","INDAPAMIDE","INDAPAMIDE TABLETS","ISOSORBIDE MONONITRATE TABLETS","LAMOTRIGINE","LAMOTRIGINE EXTENDED-RELEASE TABLETS","LEVODOPA","MORPHINE SULFATE","MORPHINE SULFATE EXTENDED-RELEASE CAPSULES","MORPHINE SULFATE EXTENDED-RELEASE TABLETS","NIFEDIPINE","NIFEDIPINE CAPSULES","OXAZEPAM","OXAZEPAM CAPSULES","OXYCODONE HYDROCHLORIDE","OXYCODONE HYDROCHLORIDE TABLETS","POTASSIUM CHLORIDE","POTASSIUM CHLORIDE EXTENDED-RELEASE CAPSULES","PROPRANOLOL HYDROCHLORIDE","PROPRANOLOL HYDROCHLORIDE EXTENDED-RELEASE CAPSULES","PROPYLTHIOURACIL","PROPYLTHIOURACIL TABLETS","ROPINIROLE EXTENDED-RELEASE TABLETS","ROPINIROLE HYDROCHLORIDE","TEMAZEPAM","TEMAZEPAM CAPSULES"],"primaryname":"Noramco, LLC","add_country":"United States","latitude":"41.709024","longitude":"-86.204765"},{"duns_number":"102688657","products":["OXYGEN"],"primaryname":"Air Products and Chemicals, Inc.","add_country":"United States","latitude":"33.650492","longitude":"-117.719113"},{"duns_number":"103220273","products":["ATROPINE","ATROPINE SULFATE","ATROPINE SULFATE INJECTION","CANAGLIFLOZIN","CANAGLIFLOZIN AND METFORMIN HYDROCHLORIDE TABLETS","METFORMIN HYDROCHLORIDE"],"primaryname":"Airgas Usa, LLC","add_country":"United States","latitude":"38.528677","longitude":"-90.329917"},{"duns_number":"104055702","products":["CASPOFUNGIN ACETATE","CASPOFUNGIN FOR INJECTION","CISATRACURIUM BESYLATE","CISATRACURIUM BESYLATE INJECTION","CYCLOPHOSPHAMIDE","CYCLOPHOSPHAMIDE FOR INJECTION","DOCETAXEL","DOCETAXEL INJECTION","ICATIBANT ACETATE","ICATIBANT INJECTION","LETROZOLE","LETROZOLE TABLETS"],"primaryname":"The Aero All-Gas Company","add_country":"United States","latitude":"34.12069","longitude":"-116.445179"},{"duns_number":"104097039","products":["ALANINE","ARGININE","ARGININE HYDROCHLORIDE","BACTERIOSTATIC SODIUM CHLORIDE INJECTION","CALCIUM CHLORIDE","DEXTROSE","DEXTROSE AND SODIUM CHLORIDE INJECTION","DEXTROSE INJECTION","DIBASIC POTASSIUM PHOSPHATE","DOPAMINE HYDROCHLORIDE","ESMOLOL HYDROCHLORIDE","ESMOLOL HYDROCHLORIDE INJECTION","GLYCINE","GLYCINE IRRIGATION","HEPARIN SODIUM","HEPARIN SODIUM INJECTION","HISTIDINE","ISOLEUCINE","LACTATED RINGER'S IRRIGATION","LEUCINE","LIDOCAINE","LIDOCAINE HYDROCHLORIDE","LIDOCAINE HYDROCHLORIDE INJECTION","LYSINE ACETATE","LYSINE HYDROCHLORIDE","MAGNESIUM CHLORIDE","MANNITOL","MANNITOL IN SODIUM CHLORIDE INJECTION","MANNITOL INJECTION","METRONIDAZOLE","METRONIDAZOLE BENZOATE","METRONIDAZOLE INJECTION","MONOBASIC POTASSIUM PHOSPHATE","MONOSODIUM GLUTAMATE","PHENYLALANINE","POTASSIUM CHLORIDE","POTASSIUM CHLORIDE IN DEXTROSE AND SODIUM CHLORIDE INJECTION","POTASSIUM CHLORIDE IN DEXTROSE INJECTION","POTASSIUM CHLORIDE IN LACTATED RINGER'S AND DEXTROSE INJECTION","POTASSIUM CHLORIDE IN SODIUM CHLORIDE INJECTION","PROLINE","SERINE","SODIUM ACETATE","SODIUM CHLORIDE","SODIUM CHLORIDE INJECTION","SODIUM CHLORIDE IRRIGATION","SODIUM GLUCONATE","SORBITOL","STERILE WATER FOR IRRIGATION","TAURINE","THREONINE","TRYPTOPHAN","TYROSINE","VALINE"],"primaryname":"Pulmocare Respiratory Services, Inc.","add_country":"United States","latitude":"42.460452","longitude":"-83.137487"},{"duns_number":"104287773","products":["ISOFLURANE","SEVOFLURANE"],"primaryname":"Granulation Technology Inc","add_country":"United States","latitude":"40.680187","longitude":"-73.742249"},{"duns_number":"105767565","products":["NITROGEN"],"primaryname":"Ablecare Medical, Inc.","add_country":"United States","latitude":"38.751287","longitude":"-77.492135"},{"duns_number":"106712748","products":["NITROGEN","OXYGEN"],"primaryname":"Bernens Convalescent Pharmacy, Inc.","add_country":"United States","latitude":"45.062351","longitude":"-93.408957"},{"duns_number":"107603276","products":["ACETAMINOPHEN","ALLOPURINOL","ALLOPURINOL TABLETS","AMITRIPTYLINE HYDROCHLORIDE","AMITRIPTYLINE HYDROCHLORIDE TABLETS","AMPHETAMINE SULFATE","AMPHETAMINE SULFATE TABLETS","BACLOFEN","BACLOFEN TABLETS","BUTALBITAL","BUTALBITAL, ACETAMINOPHEN, AND CAFFEINE TABLETS","CAFFEINE","CARISOPRODOL","CARISOPRODOL TABLETS","CLONAZEPAM","CLONAZEPAM TABLETS","CYCLOBENZAPRINE HYDROCHLORIDE","CYCLOBENZAPRINE HYDROCHLORIDE TABLETS","GLIMEPIRIDE","GLIMEPIRIDE TABLETS","HYDROCHLOROTHIAZIDE","HYDROCHLOROTHIAZIDE CAPSULES","HYDROCHLOROTHIAZIDE TABLETS","HYDROCODONE BITARTRATE","HYDROCODONE BITARTRATE AND ACETAMINOPHEN TABLETS","LISINOPRIL","LISINOPRIL TABLETS","METHYLPHENIDATE HYDROCHLORIDE","METHYLPHENIDATE HYDROCHLORIDE TABLETS","METHYLPREDNISOLONE","METHYLPREDNISOLONE SODIUM SUCCINATE","METHYLPREDNISOLONE TABLETS","OXYBUTYNIN CHLORIDE","OXYBUTYNIN CHLORIDE TABLETS","OXYCODONE AND ACETAMINOPHEN TABLETS","OXYCODONE HYDROCHLORIDE","PERPHENAZINE","PERPHENAZINE TABLETS","PHENOBARBITAL","PHENOBARBITAL SODIUM","PHENOBARBITAL TABLETS","PHENTERMINE HYDROCHLORIDE","PHENTERMINE HYDROCHLORIDE TABLETS","PREDNISONE","PREDNISONE TABLETS","TRIHEXYPHENIDYL HYDROCHLORIDE","TRIHEXYPHENIDYL HYDROCHLORIDE TABLETS"],"primaryname":"Corrigan Propane LLC","add_country":"United States","latitude":"40.907219","longitude":"-96.532345"},{"duns_number":"107912839","products":["OXYGEN"],"primaryname":"Currier Drug Inc","add_country":"United States","latitude":"38.702029","longitude":"-75.360339"},{"duns_number":"108000183","products":["MESALAMINE","MESALAMINE DELAYED-RELEASE TABLETS","METOPROLOL FUMARATE","METOPROLOL SUCCINATE"],"primaryname":"Medassure, Inc.","add_country":"United States","latitude":"41.733664","longitude":"-71.441139"},{"duns_number":"111875609","products":["DEXTROSE","DEXTROSE AND SODIUM CHLORIDE INJECTION","SODIUM CHLORIDE"],"primaryname":"Alexza Pharmaceuticals, Inc.","add_country":"United States","latitude":"33.821345","longitude":"-116.400597"},{"duns_number":"111928342","products":["NITROGEN","OXYGEN"],"primaryname":"Alick's Home Medical Equipment, Inc.","add_country":"United States","latitude":"43.5206","longitude":"-112.0319"},{"duns_number":"115244413","products":["OXYGEN"],"primaryname":"INDIVIOR UK LIMITED","add_country":"United States","latitude":"33.984351","longitude":"-117.348421"},{"duns_number":"116015827","products":["NITROGEN","NITROUS OXIDE","OXYGEN"],"primaryname":"Actavis Laboratories Fl, Inc.","add_country":"United States","latitude":"38.281348","longitude":"-80.855614"},{"duns_number":"117130170","products":["OXYGEN"],"primaryname":"Airgas Usa, LLC","add_country":"United States","latitude":"37.00368","longitude":"-121.55974"},{"duns_number":"117135641","products":["OXYGEN"],"primaryname":"Promptcare Home Infusion LLC","add_country":"United States","latitude":"42.007358","longitude":"-71.294302"},{"duns_number":"117216196","products":["ELEXACAFTOR","IVACAFTOR","IVACAFTOR TABLETS","NITROFURANTOIN","NITROFURANTOIN CAPSULES","PROCARBAZINE HYDROCHLORIDE","PROCARBAZINE HYDROCHLORIDE CAPSULES","SOFOSBUVIR","SOFOSBUVIR TABLETS","TEZACAFTOR"],"primaryname":"Richmond Oxygen Company","add_country":"United States","latitude":"41.049732","longitude":"-73.802127"},{"duns_number":"117530047","products":["OXYGEN"],"primaryname":"W H Goodale Co","add_country":"United States","latitude":"26.080949","longitude":"-80.370198"},{"duns_number":"117844898","products":["CEFADROXIL","CEFADROXIL CAPSULES","CEFADROXIL FOR ORAL SUSPENSION","CEFDINIR","CEFDINIR CAPSULES","CEFDINIR FOR ORAL SUSPENSION","CEFIXIME","CEFIXIME CAPSULES","CEFIXIME FOR ORAL SUSPENSION","CEFPROZIL","CEFPROZIL FOR ORAL SUSPENSION","CEFPROZIL TABLETS","CEFTRIAXONE FOR INJECTION","CEFTRIAXONE SODIUM","CEFUROXIME AXETIL","CEFUROXIME AXETIL TABLETS","CEFUROXIME SODIUM","CEPHALEXIN","CEPHALEXIN CAPSULES","CEPHALEXIN FOR ORAL SUSPENSION","CEPHALEXIN HYDROCHLORIDE","LISINOPRIL","LISINOPRIL TABLETS"],"primaryname":"Praxair Distribution, Inc.","add_country":"United States","latitude":"32.915138","longitude":"-117.233758"},{"duns_number":"117852242","products":["ACETAZOLAMIDE","ACETAZOLAMIDE TABLETS","ALOSETRON HYDROCHLORIDE","ALOSETRON TABLETS","AMITRIPTYLINE HYDROCHLORIDE","AMITRIPTYLINE HYDROCHLORIDE TABLETS","CLOMIPRAMINE HYDROCHLORIDE","CLOMIPRAMINE HYDROCHLORIDE CAPSULES","FENOFIBRATE","FENOFIBRATE TABLETS","FENOFIBRIC ACID TABLETS","RANOLAZINE"],"primaryname":"ALKALOIDA Vegy\u00e9szeti Gy\u00e1r z\u00e1rtk\u00f6r\u0171en m\u0171k\u00f6d\u0151 R\u00e9szv\u00e9nyt\u00e1rsas\u00e1g","add_country":"United States","latitude":"44.972033","longitude":"-93.205242"},{"duns_number":"119723554","products":["NITROGEN","OXYGEN"],"primaryname":"ALKERMES PHARMA IRELAND LIMITED","add_country":"United States","latitude":"40.873778","longitude":"-74.449341"},{"duns_number":"121735955","products":["OXYGEN"],"primaryname":"ROSEMONT PHARMACEUTICALS LIMITED","add_country":"United States","latitude":"40.018878","longitude":"-75.093236"},{"duns_number":"122678886","products":["OXYGEN"],"primaryname":"Proto Chemicals AG","add_country":"United States","latitude":"33.648769","longitude":"-117.716425"},{"duns_number":"122866429","products":["INFLIXIMAB"],"primaryname":"Sanford Healthcare Accessories, L.L.C.","add_country":"United States","latitude":"32.78546","longitude":"-108.260694"},{"duns_number":"123380631","products":["OXYGEN"],"primaryname":"Airgas Usa, LLC","add_country":"United States","latitude":"37.301738","longitude":"-77.279436"},{"duns_number":"125670554","products":["NITROGEN","OXYGEN"],"primaryname":"Roberts Oxygen Company, Inc.","add_country":"United States","latitude":"35.228542","longitude":"-80.92755"},{"duns_number":"126606222","products":["PEGFILGRASTIM"],"primaryname":"Ilmo Products Company","add_country":"United States","latitude":"38.269606","longitude":"-104.615253"},{"duns_number":"126962740","products":["ALBUTEROL","ALBUTEROL INHALATION AEROSOL","ALBUTEROL SULFATE","BETAMETHASONE","BETAMETHASONE BENZOATE","BETAMETHASONE DIPROPIONATE OINTMENT","BETAMETHASONE SODIUM PHOSPHATE","BETAMETHASONE VALERATE OINTMENT","CLOBETASOL PROPIONATE","CLOBETASOL PROPIONATE CREAM","CLOBETASOL PROPIONATE LOTION","CLOBETASOL PROPIONATE OINTMENT","CLOBETASOL PROPIONATE TOPICAL SOLUTION","DESOXIMETASONE","DESOXIMETASONE CREAM","DESOXIMETASONE OINTMENT","DESOXIMETASONE TOPICAL SPRAY","DICLOFENAC SODIUM","DICLOFENAC SODIUM TOPICAL SOLUTION","FLUOCINONIDE","FLUOCINONIDE OINTMENT","FLUOCINONIDE TOPICAL SOLUTION","HYDROCORTISONE","HYDROCORTISONE ACETATE LOTION","HYDROCORTISONE BUTYRATE","HYDROCORTISONE HEMISUCCINATE","HYDROCORTISONE LOTION","HYDROCORTISONE SODIUM SUCCINATE","NYSTATIN","NYSTATIN AND TRIAMCINOLONE ACETONIDE CREAM","TESTOSTERONE","TESTOSTERONE TOPICAL GEL","TESTOSTERONE TOPICAL SOLUTION","TRIAMCINOLONE","TRIAMCINOLONE ACETONIDE"],"primaryname":"Targeted Medical Pharma, Inc.","add_country":"United States","latitude":"34.127839","longitude":"-118.444538"},{"duns_number":"127713019","products":["DOXYCYCLINE","DOXYCYCLINE CAPSULES","DOXYCYCLINE HYCLATE CAPSULES"],"primaryname":"Air Liquide Large Industries U.S. LP","add_country":"United States","latitude":"33.949982","longitude":"-118.059661"},{"duns_number":"127987386","products":["ADENOSINE","ADENOSINE INJECTION","ENZALUTAMIDE","REMIFENTANIL HYDROCHLORIDE"],"primaryname":"Aspen Air U.S., LLC","add_country":"United States","latitude":"29.693808","longitude":"-95.033574"},{"duns_number":"128763224","products":["NITROGEN","OXYGEN"],"primaryname":"Linde Inc.","add_country":"United States","latitude":"34.013604","longitude":"-86.053324"},{"duns_number":"129012352","products":["NITROGEN"],"primaryname":"Promptcare Home Infusion LLC","add_country":"United States","latitude":"39.682369","longitude":"-86.19273"},{"duns_number":"130286177","products":["NITROGEN"],"primaryname":"Helping Hands Hospice Supply LLP","add_country":"United States","latitude":"30.253969","longitude":"-97.703582"},{"duns_number":"130729056","products":["CHOLECALCIFEROL","FOLIC ACID","HYDROCORTISONE","HYDROCORTISONE ACETATE","HYDROCORTISONE HEMISUCCINATE","HYDROCORTISONE SODIUM SUCCINATE","HYDROQUINONE","HYDROQUINONE CREAM","LIDOCAINE","LIDOCAINE HYDROCHLORIDE","METHOCARBAMOL","METHOCARBAMOL TABLETS","PHENAZOPYRIDINE HYDROCHLORIDE","PHENAZOPYRIDINE HYDROCHLORIDE TABLETS"],"primaryname":"Airgas Usa, LLC","add_country":"United States","latitude":"44.89139","longitude":"-97.107835"},{"duns_number":"131103132","products":["OXYGEN"],"primaryname":"Allied Medical Supply, Inc.","add_country":"United States","latitude":"44.246466","longitude":"-86.319568"},{"duns_number":"131426942","products":["NITROGEN","OXYGEN"],"primaryname":"Airgas Usa, LLC","add_country":"United States","latitude":"42.775982","longitude":"-84.543345"},{"duns_number":"131439648","products":["NITROGEN","OXYGEN"],"primaryname":"Airgas Usa, LLC","add_country":"United States","latitude":"18.4302","longitude":"-66.2048"},{"duns_number":"133337191","products":["NITROGEN","OXYGEN"],"primaryname":"Almirall, LLC","add_country":"United States","latitude":"44.916633","longitude":"-123.018892"},{"duns_number":"136116865","products":["OXYGEN"],"primaryname":"Changzhou Siyao Pharmaceuticals Co., Ltd.","add_country":"United States","latitude":"27.799233","longitude":"-82.665976"},{"duns_number":"138120592","products":["OMEPRAZOLE","OMEPRAZOLE AND SODIUM BICARBONATE CAPSULES","OMEPRAZOLE MAGNESIUM","SODIUM BICARBONATE"],"primaryname":"Altaire Pharmaceuticals, Inc.","add_country":"United States","latitude":"33.425872","longitude":"-112.093235"},{"duns_number":"144157377","products":["OXYGEN"],"primaryname":"Tris Pharma, Inc.","add_country":"United States","latitude":"37.753213","longitude":"-122.386809"},{"duns_number":"147285217","products":["OXYGEN"],"primaryname":"Sound Oxygen Service LLC","add_country":"United States","latitude":"40.248672","longitude":"-103.801557"},{"duns_number":"147344667","products":["OXYGEN"],"primaryname":"Chongqing Daxin Pharmaceutical Co., Ltd. Shuitu Town Factory","add_country":"United States","latitude":"34.058968","longitude":"-117.990021"},{"duns_number":"147470967","products":["NITROGEN"],"primaryname":"Cammack's Pharmacies, Inc.","add_country":"United States","latitude":"37.737502","longitude":"-97.331784"},{"duns_number":"147581557","products":["CARBON DIOXIDE","HELIUM","NITROGEN","NITROUS OXIDE","OXYGEN"],"primaryname":"HETERO LABS LIMITED","add_country":"United States","latitude":"46.832684","longitude":"-96.831885"},{"duns_number":"148914927","products":["NITROGEN","OXYGEN"],"primaryname":"Praxair Distribution, Inc.","add_country":"United States","latitude":"39.261932","longitude":"-84.374058"},{"duns_number":"149739323","products":["NITROGEN","NITROUS OXIDE","OXYGEN"],"primaryname":"Airgas Usa, LLC","add_country":"United States","latitude":"42.94286","longitude":"-71.426681"},{"duns_number":"152936519","products":["OXYGEN"],"primaryname":"Epic Pharma, LLC","add_country":"United States","latitude":"21.332054","longitude":"-157.886545"},{"duns_number":"153366138","products":["NITROGEN","OXYGEN"],"primaryname":"Praxair Distribution, Inc.","add_country":"United States","latitude":"26.213507","longitude":"-98.195538"},{"duns_number":"155321396","products":["AMOXICILLIN","AMOXICILLIN AND CLAVULANATE POTASSIUM FOR ORAL SUSPENSION","AMOXICILLIN AND CLAVULANATE POTASSIUM TABLETS","APREPITANT","APREPITANT CAPSULES","ATORVASTATIN CALCIUM","ATORVASTATIN CALCIUM TABLETS","BROMOCRIPTINE MESYLATE","BROMOCRIPTINE MESYLATE TABLETS","CLAVULANATE POTASSIUM","ENALAPRIL MALEATE","ENALAPRIL MALEATE TABLETS","GLIMEPIRIDE","HYDROCHLOROTHIAZIDE","LEVOFLOXACIN","LEVOFLOXACIN TABLETS","LOSARTAN POTASSIUM","LOSARTAN POTASSIUM AND HYDROCHLOROTHIAZIDE TABLETS","LOSARTAN POTASSIUM TABLETS","METFORMIN HYDROCHLORIDE","OLANZAPINE","OLANZAPINE FOR EXTENDED-RELEASE INJECTABLE SUSPENSION","OLANZAPINE PAMOATE","OMEPRAZOLE","OMEPRAZOLE DELAYED-RELEASE CAPSULES","OMEPRAZOLE MAGNESIUM","PANTOPRAZOLE SODIUM","PANTOPRAZOLE SODIUM FOR INJECTION","PIOGLITAZONE AND GLIMEPIRIDE TABLETS","PIOGLITAZONE AND METFORMIN HYDROCHLORIDE TABLETS","PIOGLITAZONE HYDROCHLORIDE","PIOGLITAZONE TABLETS","PRAVASTATIN SODIUM","PRAVASTATIN SODIUM TABLETS","ROSUVASTATIN CALCIUM","ROSUVASTATIN TABLETS","TAMSULOSIN HYDROCHLORIDE","TAMSULOSIN HYDROCHLORIDE CAPSULES","TELMISARTAN","TELMISARTAN TABLETS","TIGECYCLINE","TIGECYCLINE FOR INJECTION","ZOLPIDEM TARTRATE","ZOLPIDEM TARTRATE EXTENDED-RELEASE TABLETS","ZOLPIDEM TARTRATE TABLETS"],"primaryname":"Saginaw Welding Supply Company","add_country":"United States","latitude":"41.439717","longitude":"-81.652066"},{"duns_number":"155929755","products":["ROSUVASTATIN CALCIUM","ROSUVASTATIN TABLETS"],"primaryname":"Praxair Distribution, Inc.","add_country":"United States","latitude":"36.657924","longitude":"-121.637001"},{"duns_number":"157990263","products":["POLYETHYLENE GLYCOL 3350","POTASSIUM CHLORIDE","SODIUM BICARBONATE","SODIUM CHLORIDE","SODIUM SULFATE"],"primaryname":"Groupe Parima Inc","add_country":"United States","latitude":"41.695303","longitude":"-71.540029"},{"duns_number":"161169040","products":["BUPRENORPHINE AND NALOXONE SUBLINGUAL TABLETS","BUPRENORPHINE HYDROCHLORIDE","BUPRENORPHINE SUBLINGUAL TABLETS","FENOFIBRATE","FENOFIBRATE CAPSULES","FENOFIBRATE TABLETS","FENOFIBRIC ACID TABLETS"],"primaryname":"Airgas Usa, LLC","add_country":"United States","latitude":"29.432543","longitude":"-98.613445"},{"duns_number":"161365424","products":["OXYGEN"],"primaryname":"Airgas Usa, LLC","add_country":"United States","latitude":"38.847775","longitude":"-104.851167"},{"duns_number":"163205300","products":["CARBON DIOXIDE","HELIUM","NITROGEN","OXYGEN"],"primaryname":"Icu Medical, Inc.","add_country":"United States","latitude":"38.661349","longitude":"-90.193438"},{"duns_number":"163532476","products":["NITROGEN"],"primaryname":"North Central Respiratory Inc","add_country":"United States","latitude":"36.998379","longitude":"-85.945352"},{"duns_number":"166506142","products":["OXYGEN"],"primaryname":"Althea Ajinomoto Inc","add_country":"United States","latitude":"39.736296","longitude":"-75.541287"},{"duns_number":"172749546","products":["NITROGEN"],"primaryname":"Airgas Usa, LLC","add_country":"United States","latitude":"42.900065","longitude":"-85.65395"},{"duns_number":"172858180","products":["BLEOMYCIN FOR INJECTION","BLEOMYCIN SULFATE","CARBOPLATIN","CARBOPLATIN FOR INJECTION","CARBOPLATIN INJECTION","CYTARABINE","CYTARABINE FOR INJECTION","DAPTOMYCIN","DAPTOMYCIN FOR INJECTION","DOCETAXEL","DOCETAXEL INJECTION","GEMCITABINE FOR INJECTION","GEMCITABINE HYDROCHLORIDE","IRINOTECAN HYDROCHLORIDE","IRINOTECAN HYDROCHLORIDE INJECTION","METHOTREXATE","METHOTREXATE FOR INJECTION","METHOTREXATE INJECTION","MITOXANTRONE HYDROCHLORIDE","MITOXANTRONE INJECTION","OXALIPLATIN","OXALIPLATIN FOR INJECTION","OXALIPLATIN INJECTION","PACLITAXEL","PACLITAXEL INJECTION","PAMIDRONATE DISODIUM","PAMIDRONATE DISODIUM FOR INJECTION","PENTOSTATIN","PENTOSTATIN FOR INJECTION","TOPOTECAN FOR INJECTION","TOPOTECAN HYDROCHLORIDE","TOPOTECAN INJECTION","VINCRISTINE SULFATE","VINCRISTINE SULFATE INJECTION","VINCRISTINE SULFATE LIPOSOME INJECTION"],"primaryname":"First Community Care, L.L.C.","add_country":"United States","latitude":"39.270635","longitude":"-84.378972"},{"duns_number":"174050377","products":["OXYGEN"],"primaryname":"Merit Healthcare International, Inc.","add_country":"United States","latitude":"18.429","longitude":"-66.4844"},{"duns_number":"174350868","products":["DESONIDE","DESONIDE CREAM","DESONIDE OINTMENT"],"primaryname":"Dupuy Oxygen & Supply Company, Inc.","add_country":"United States","latitude":"42.612715","longitude":"-71.173546"},{"duns_number":"180519969","products":["HEPARIN SODIUM","HEPARIN SODIUM INJECTION"],"primaryname":"Helget Gas Products, Inc.","add_country":"United States","latitude":"36.990836","longitude":"-79.901054"},{"duns_number":"181110946","products":["TIPIRACIL","TRIFLURIDINE"],"primaryname":"Airway Oxygen, Inc.","add_country":"United States","latitude":"38.41622","longitude":"-82.597858"},{"duns_number":"181115270","products":["EPTACOG ALFA ACTIVATED FOR INJECTION"],"primaryname":"Oxygen Utah, L.L.C.","add_country":"United States","latitude":"40.853556","longitude":"-115.739445"},{"duns_number":"181913898","products":["GLUTAMINE"],"primaryname":"Haun Welding Supply, Inc.","add_country":"United States","latitude":"42.675098","longitude":"-111.584509"},{"duns_number":"182076349","products":["OXYGEN"],"primaryname":"Roche Diagnostics GmbH","add_country":"United States","latitude":"41.258193","longitude":"-110.99774"},{"duns_number":"183820687","products":["BENZTROPINE MESYLATE","BENZTROPINE MESYLATE INJECTION","PROCHLORPERAZINE","PROCHLORPERAZINE EDISYLATE","PROCHLORPERAZINE EDISYLATE INJECTION","PROCHLORPERAZINE MALEATE","TRANEXAMIC ACID","TRANEXAMIC ACID INJECTION"],"primaryname":"Plaza Home Care Inc","add_country":"United States","latitude":"39.367984","longitude":"-81.534257"},{"duns_number":"184061013","products":["OXYGEN"],"primaryname":"Airgas Usa, LLC","add_country":"United States","latitude":"39.959361","longitude":"-74.122752"},{"duns_number":"185466435","products":["AMOXICILLIN","AMOXICILLIN AND CLAVULANATE POTASSIUM FOR ORAL SUSPENSION","AMOXICILLIN AND CLAVULANATE POTASSIUM TABLETS","AMOXICILLIN AND CLAVULANIC ACID EXTENDED-RELEASE TABLETS","CLAVULANATE POTASSIUM"],"primaryname":"Messer LLC","add_country":"United States","latitude":"38.553169","longitude":"-90.041289"},{"duns_number":"185607918","products":["ALBUMIN HUMAN"],"primaryname":"Matheson Tri-Gas, Inc.","add_country":"United States","latitude":"40.678805","longitude":"-111.905514"},{"duns_number":"186163796","products":["OXYGEN"],"primaryname":"Teva Parenteral Medicines, Inc.","add_country":"United States","latitude":"44.328787","longitude":"-74.132773"},{"duns_number":"187765938","products":["OXYGEN"],"primaryname":"Guangdong New Space-time Technology Corp., Ltd.","add_country":"United States","latitude":"32.279933","longitude":"-90.137273"},{"duns_number":"190752779","products":["ANHYDROUS CITRIC ACID","CITRIC ACID MONOHYDRATE","MAGNESIUM OXIDE","SODIUM PICOSULFATE","SODIUM PICOSULFATE, MAGNESIUM OXIDE, AND CITRIC ACID FOR ORAL SOLUTION"],"primaryname":"Nan & Jan, LLC","add_country":"United States","latitude":"43.468351","longitude":"-112.046444"},{"duns_number":"192491397","products":["SODIUM NITRITE","SODIUM THIOSULFATE","SODIUM THIOSULFATE INJECTION"],"primaryname":"Pfizer Health AB","add_country":"United States","latitude":"38.899099","longitude":"-104.847067"},{"duns_number":"196668024","products":["OXYGEN"],"primaryname":"CIPLA LIMITED","add_country":"United States","latitude":"36.555956","longitude":"-87.326768"},{"duns_number":"196796833","products":["OXYGEN"],"primaryname":"Patheon Pharmaceuticals Inc.","add_country":"United States","latitude":"38.266265","longitude":"-121.308071"},{"duns_number":"201296325","products":["CARBON DIOXIDE","HELIUM","NITROUS OXIDE","OXYGEN"],"primaryname":"Rotech Healthcare Inc.","add_country":"Canada","latitude":"49.19321","longitude":"-123.98391"},{"duns_number":"203508049","products":["HYOSCYAMINE","HYOSCYAMINE SULFATE","METHENAMINE","METHYLENE BLUE","MONOBASIC SODIUM PHOSPHATE"],"primaryname":"Clovis Equipment & Supply Company Inc","add_country":"Canada","latitude":"49.803937","longitude":"-97.144954"},{"duns_number":"203817635","products":["NITROGEN","OXYGEN"],"primaryname":"GLENMARK LIFE SCIENCES LIMITED","add_country":"Canada","latitude":"45.57634","longitude":"-73.45222"},{"duns_number":"214482031","products":["ACETAMINOPHEN","ACETAMINOPHEN AND CODEINE PHOSPHATE TABLETS","BROMPHENIRAMINE MALEATE","BUPRENORPHINE AND NALOXONE SUBLINGUAL TABLETS","BUPRENORPHINE HYDROCHLORIDE","CODEINE","CODEINE PHOSPHATE","DEXTROMETHORPHAN","DEXTROMETHORPHAN HYDROBROMIDE","HYDROCODONE BITARTRATE","HYDROCODONE BITARTRATE AND ACETAMINOPHEN TABLETS","METHYLPHENIDATE HYDROCHLORIDE","METHYLPHENIDATE HYDROCHLORIDE ORAL SOLUTION","METHYLPHENIDATE HYDROCHLORIDE TABLETS","OXYCODONE AND ACETAMINOPHEN TABLETS","OXYCODONE HYDROCHLORIDE","OXYCODONE HYDROCHLORIDE ORAL SOLUTION","PSEUDOEPHEDRINE HYDROCHLORIDE"],"primaryname":"Messer LLC","add_country":"United Kingdom","latitude":"55.597371","longitude":"-4.655637"},{"duns_number":"221107369","products":["NITROGEN","OXYGEN"],"primaryname":"Norco, Inc.","add_country":"United Kingdom","latitude":"55.41987","longitude":"-1.77682"},{"duns_number":"232235408","products":["TESTOSTERONE","TESTOSTERONE TOPICAL GEL"],"primaryname":"Clay County Hospital Dme","add_country":"United Kingdom","latitude":"53.27374","longitude":"-2.12178"},{"duns_number":"233649834","products":["NITROGEN","OXYGEN"],"primaryname":"131-21 226th Street, Laurelton, New York 11413, LLC","add_country":"United Kingdom","latitude":"54.84137","longitude":"-5.85638"},{"duns_number":"237676320","products":["NITROGEN","OXYGEN"],"primaryname":"Zambon Switzerland Ltd","add_country":"United Kingdom","latitude":"51.54629","longitude":"-1.83776"},{"duns_number":"244249012","products":["CHLOROTHIAZIDE","CHLOROTHIAZIDE SODIUM FOR INJECTION","ISOPROPYL ALCOHOL","ISOPROPYL RUBBING ALCOHOL","LEUPROLIDE ACETATE","RUBBING ALCOHOL"],"primaryname":"McAbee Medical, Inc.","add_country":"Canada","latitude":"49.165452","longitude":"-122.965419"},{"duns_number":"245221226","products":["AMLODIPINE BESYLATE","AMLODIPINE BESYLATE TABLETS","CLOPIDOGREL BISULFATE","CLOPIDOGREL TABLETS","DARIFENACIN EXTENDED-RELEASE TABLETS","DARIFENACIN HYDROBROMIDE","MEMANTINE HYDROCHLORIDE","MEMANTINE HYDROCHLORIDE TABLETS","PHENTERMINE HYDROCHLORIDE","PHENTERMINE HYDROCHLORIDE TABLETS","TRAMADOL HYDROCHLORIDE","TRAMADOL HYDROCHLORIDE TABLETS"],"primaryname":"TORRENT PHARMACEUTICALS LIMITED","add_country":"Canada","latitude":"49.878419","longitude":"-97.04827"},{"duns_number":"265413258","products":["ACYCLOVIR","ACYCLOVIR OINTMENT","BENZNIDAZOLE","BENZNIDAZOLE TABLETS","CLOBETASOL PROPIONATE","CLOBETASOL PROPIONATE CREAM","CLOBETASOL PROPIONATE OINTMENT","DOFETILIDE","FOSFOMYCIN TROMETHAMINE","KETOCONAZOLE","LANSOPRAZOLE","LANSOPRAZOLE DELAYED-RELEASE CAPSULES","OMEPRAZOLE","OMEPRAZOLE DELAYED-RELEASE CAPSULES","OMEPRAZOLE MAGNESIUM","PANTOPRAZOLE SODIUM","PANTOPRAZOLE SODIUM DELAYED-RELEASE TABLETS","TERBINAFINE TABLETS"],"primaryname":"Texoma Medical Services, Inc","add_country":"France","latitude":"50.445703","longitude":"3.26933"},{"duns_number":"267941768","products":["ACYCLOVIR","ACYCLOVIR OINTMENT","ADAPALENE","ADAPALENE AND BENZOYL PEROXIDE GEL","ADAPALENE GEL","AZELAIC ACID","AZELAIC ACID TOPICAL GEL","BETAMETHASONE","BETAMETHASONE BENZOATE","BETAMETHASONE SODIUM PHOSPHATE","CALCIPOTRIENE","CALCIPOTRIENE AND BETAMETHASONE DIPROPIONATE OINTMENT","CALCIPOTRIENE AND BETAMETHASONE DIPROPIONATE TOPICAL SUSPENSION","CALCIPOTRIENE CREAM","CALCIPOTRIENE TOPICAL SOLUTION","CLINDAMYCIN AND BENZOYL PEROXIDE TOPICAL GEL","CLINDAMYCIN HYDROCHLORIDE","CLINDAMYCIN PALMITATE HYDROCHLORIDE","CLINDAMYCIN PHOSPHATE","CLOBETASOL PROPIONATE","CLOBETASOL PROPIONATE TOPICAL SOLUTION","DICLOFENAC SODIUM","DICLOFENAC SODIUM TOPICAL GEL","DOXYCYCLINE","DOXYCYCLINE HYCLATE","ERYTHROMYCIN","ERYTHROMYCIN AND BENZOYL PEROXIDE TOPICAL GEL","KETOCONAZOLE","LEUPROLIDE ACETATE","LIDOCAINE","LIDOCAINE AND PRILOCAINE CREAM","METRONIDAZOLE","METRONIDAZOLE BENZOATE","METRONIDAZOLE VAGINAL GEL","NAFTIFINE HYDROCHLORIDE","NAFTIFINE HYDROCHLORIDE CREAM","NAFTIFINE HYDROCHLORIDE GEL","PRILOCAINE"],"primaryname":"Special Care Medical of South Carolina, Inc.","add_country":"France","latitude":"51.01437","longitude":"2.34022"},{"duns_number":"274234566","products":["NITROGEN","OXYGEN"],"primaryname":"Respacare of Louisiana, L.L.C.","add_country":"France","latitude":"45.25213","longitude":"4.64442"},{"duns_number":"278800789","products":["NITROGEN","OXYGEN"],"primaryname":"SUVEN PHARMACEUTICALS LIMITED","add_country":"France","latitude":"49.395674","longitude":"1.053693"},{"duns_number":"28814367","products":["NITROGEN","OXYGEN"],"primaryname":"Baxter Healthcare Corporation","add_country":"United States","latitude":"40.840304","longitude":"-73.90077"},{"duns_number":"297676475","products":["ABACAVIR AND LAMIVUDINE TABLETS","ABACAVIR SULFATE","ABACAVIR TABLETS","ACETAMINOPHEN","ALPRAZOLAM","ALPRAZOLAM TABLETS","AMIODARONE HYDROCHLORIDE","AMIODARONE HYDROCHLORIDE TABLETS","AMLODIPINE AND BENAZEPRIL HYDROCHLORIDE CAPSULES","AMLODIPINE AND OLMESARTAN MEDOXOMIL TABLETS","AMLODIPINE AND VALSARTAN TABLETS","AMLODIPINE BESYLATE","AMLODIPINE, VALSARTAN AND HYDROCHLOROTHIAZIDE TABLETS","ARIPIPRAZOLE","ARIPIPRAZOLE TABLETS","ARMODAFINIL","ARMODAFINIL TABLETS","ATAZANAVIR CAPSULES","ATAZANAVIR SULFATE","AZITHROMYCIN","AZITHROMYCIN TABLETS","BENAZEPRIL HYDROCHLORIDE","CELECOXIB","CELECOXIB CAPSULES","CHLORTHALIDONE","CHLORTHALIDONE TABLETS","CINACALCET HYDROCHLORIDE","CINACALCET TABLETS","CLOZAPINE","CLOZAPINE TABLETS","DALFAMPRIDINE","DALFAMPRIDINE EXTENDED-RELEASE TABLETS","DARIFENACIN EXTENDED-RELEASE TABLETS","DARIFENACIN HYDROBROMIDE","DESOGESTREL","DIVALPROEX SODIUM","DIVALPROEX SODIUM EXTENDED-RELEASE TABLETS","DROSPIRENONE","EFAVIRENZ","EFAVIRENZ CAPSULES","EFAVIRENZ TABLETS","EMTRICITABINE","EMTRICITABINE AND TENOFOVIR DISOPROXIL FUMARATE TABLETS","ENTACAPONE","ENTACAPONE TABLETS","ENTECAVIR","ENTECAVIR TABLETS","ESOMEPRAZOLE MAGNESIUM","ESOMEPRAZOLE MAGNESIUM DELAYED-RELEASE CAPSULES","ESOMEPRAZOLE SODIUM","ESOMEPRAZOLE STRONTIUM DELAYED-RELEASE CAPSULES","ETHINYL ESTRADIOL","ETHINYL ESTRADIOL TABLETS","EXTENDED PHENYTOIN SODIUM CAPSULES","EZETIMIBE","EZETIMIBE TABLETS","FAMOTIDINE","FAMOTIDINE TABLETS","FELODIPINE","FELODIPINE EXTENDED-RELEASE TABLETS","FENOFIBRATE","FENOFIBRATE TABLETS","FENOFIBRIC ACID DELAYED-RELEASE CAPSULES","FENOFIBRIC ACID TABLETS","FERROUS FUMARATE","FERROUS FUMARATE TABLETS","FLECAINIDE ACETATE","FLECAINIDE ACETATE TABLETS","FLUOXETINE CAPSULES","FLUOXETINE TABLETS","GABAPENTIN","GABAPENTIN CAPSULES","GABAPENTIN TABLETS","GALANTAMINE EXTENDED-RELEASE CAPSULES","GALANTAMINE HYDROBROMIDE","GEMFIBROZIL","GEMFIBROZIL TABLETS","GLIMEPIRIDE","GLIMEPIRIDE TABLETS","GLIPIZIDE","GLIPIZIDE EXTENDED-RELEASE TABLETS","HYDROCHLOROTHIAZIDE","IBANDRONATE SODIUM","IBANDRONATE SODIUM TABLETS","IRBESARTAN","IRBESARTAN AND HYDROCHLOROTHIAZIDE TABLETS","IRBESARTAN TABLETS","LAMIVUDINE","LAMIVUDINE AND ZIDOVUDINE TABLETS","LAMIVUDINE TABLETS","LEVOFLOXACIN","LEVOFLOXACIN TABLETS","LEVONORGESTREL","LOSARTAN POTASSIUM","LOSARTAN POTASSIUM AND HYDROCHLOROTHIAZIDE TABLETS","MECLIZINE HYDROCHLORIDE","MECLIZINE HYDROCHLORIDE TABLETS","MEMANTINE HYDROCHLORIDE","MEMANTINE HYDROCHLORIDE TABLETS","METFORMIN HYDROCHLORIDE","METFORMIN HYDROCHLORIDE EXTENDED-RELEASE TABLETS","METFORMIN HYDROCHLORIDE TABLETS","METHENAMINE","METHENAMINE HIPPURATE","METHENAMINE HIPPURATE TABLETS","METHENAMINE MANDELATE TABLETS","METHENAMINE TABLETS","METRONIDAZOLE","METRONIDAZOLE BENZOATE","METRONIDAZOLE TABLETS","MINOCYCLINE HYDROCHLORIDE","MINOCYCLINE HYDROCHLORIDE EXTENDED-RELEASE TABLETS","MODAFINIL","MODAFINIL TABLETS","MONTELUKAST SODIUM","MONTELUKAST SODIUM CHEWABLE TABLETS","MONTELUKAST SODIUM TABLETS","MOXIFLOXACIN HYDROCHLORIDE","MOXIFLOXACIN TABLETS","NAPROXEN","NAPROXEN SODIUM","NAPROXEN SODIUM TABLETS","NAPROXEN TABLETS","NEVIRAPINE","NEVIRAPINE TABLETS","NORETHINDRONE","NORETHINDRONE ACETATE","NORETHINDRONE ACETATE AND ETHINYL ESTRADIOL TABLETS","NORETHINDRONE ACETATE TABLETS","NORETHINDRONE AND ETHINYL ESTRADIOL TABLETS","NORETHINDRONE TABLETS","NORGESTIMATE","OLANZAPINE","OLANZAPINE ORALLY DISINTEGRATING TABLETS","OLANZAPINE PAMOATE","OLANZAPINE TABLETS","OLMESARTAN MEDOXOMIL","OLMESARTAN MEDOXOMIL AND HYDROCHLOROTHIAZIDE TABLETS","OLMESARTAN MEDOXOMIL TABLETS","OMEPRAZOLE","OMEPRAZOLE DELAYED-RELEASE CAPSULES","OMEPRAZOLE MAGNESIUM","PANTOPRAZOLE SODIUM","PANTOPRAZOLE SODIUM DELAYED-RELEASE TABLETS","PARICALCITOL","PARICALCITOL CAPSULES","PHENYTOIN","PHENYTOIN SODIUM","PIOGLITAZONE AND METFORMIN HYDROCHLORIDE TABLETS","PIOGLITAZONE HYDROCHLORIDE","PRAMIPEXOLE DIHYDROCHLORIDE","PRASUGREL HYDROCHLORIDE","PRASUGREL TABLETS","PRAVASTATIN SODIUM","PRAVASTATIN SODIUM TABLETS","QUETIAPINE EXTENDED-RELEASE TABLETS","QUETIAPINE FUMARATE","QUINAPRIL HYDROCHLORIDE","QUINAPRIL TABLETS","RABEPRAZOLE SODIUM","RABEPRAZOLE SODIUM DELAYED-RELEASE TABLETS","RALOXIFENE HYDROCHLORIDE","RALOXIFENE HYDROCHLORIDE TABLETS","RITONAVIR","RITONAVIR TABLETS","RIVASTIGMINE","RIVASTIGMINE TARTRATE","RIVASTIGMINE TARTRATE CAPSULES","RIZATRIPTAN BENZOATE","RIZATRIPTAN BENZOATE ORALLY DISINTEGRATING TABLETS","RIZATRIPTAN BENZOATE TABLETS","SERTRALINE HYDROCHLORIDE","SERTRALINE HYDROCHLORIDE TABLETS","SEVELAMER CARBONATE","SEVELAMER CARBONATE FOR ORAL SUSPENSION","SEVELAMER CARBONATE TABLETS","SEVELAMER HYDROCHLORIDE TABLETS","SILDENAFIL CITRATE","SILDENAFIL TABLETS","SIMVASTATIN","SIMVASTATIN TABLETS","SULFAMETHOXAZOLE","SULFAMETHOXAZOLE AND TRIMETHOPRIM TABLETS","SUMATRIPTAN","SUMATRIPTAN SUCCINATE","TADALAFIL","TADALAFIL TABLETS","TAMSULOSIN HYDROCHLORIDE","TAMSULOSIN HYDROCHLORIDE CAPSULES","TELMISARTAN","TELMISARTAN AND HYDROCHLOROTHIAZIDE TABLETS","TELMISARTAN TABLETS","TENOFOVIR DISOPROXIL FUMARATE","TRAMADOL HYDROCHLORIDE","TRAMADOL HYDROCHLORIDE AND ACETAMINOPHEN TABLETS","TRAMADOL HYDROCHLORIDE TABLETS","TRIMETHOPRIM","TRIMETHOPRIM SULFATE","VALACYCLOVIR HYDROCHLORIDE","VALACYCLOVIR TABLETS","VALGANCICLOVIR HYDROCHLORIDE","VALGANCICLOVIR TABLETS","VALSARTAN","VALSARTAN AND HYDROCHLOROTHIAZIDE TABLETS","VALSARTAN TABLETS","VORICONAZOLE","VORICONAZOLE TABLETS","ZIDOVUDINE","ZIDOVUDINE CAPSULES","ZIDOVUDINE TABLETS","ZIPRASIDONE CAPSULES","ZIPRASIDONE HYDROCHLORIDE","ZOLMITRIPTAN","ZOLMITRIPTAN TABLETS","ZOLPIDEM TARTRATE","ZOLPIDEM TARTRATE TABLETS"],"primaryname":"I 3 Pharmaceuticals, LLC","add_country":"France","latitude":"49.429803","longitude":"2.858617"},{"duns_number":"301119178","products":["LIDOCAINE","LIDOCAINE OINTMENT"],"primaryname":"Roberts Oxygen Company, Inc.","add_country":"Austria","latitude":"48.144278","longitude":"16.377117"},{"duns_number":"30346444","products":["OXYGEN"],"primaryname":"American Welding & Gas, Inc.","add_country":"United States","latitude":"34.024856","longitude":"-81.036395"},{"duns_number":"313166479","products":["ISOPROTERENOL HYDROCHLORIDE","ISOPROTERENOL HYDROCHLORIDE INJECTION","ISOPROTERENOL SULFATE","LEVOLEUCOVORIN CALCIUM"],"primaryname":"Ony Biotech Inc.","add_country":"Germany","latitude":"48.235258","longitude":"9.87671"},{"duns_number":"315869123","products":["ELEXACAFTOR","IVACAFTOR","IVACAFTOR TABLETS","TEZACAFTOR"],"primaryname":"Axiscare Health Logistics, Inc.","add_country":"Germany","latitude":"52.098993","longitude":"9.396328"},{"duns_number":"316875129","products":["PREGABALIN","PREGABALIN CAPSULES"],"primaryname":"HORIZON THERAPEUTICS PUBLIC LIMITED COMPANY","add_country":"Germany","latitude":"51.108959","longitude":"9.559226"},{"duns_number":"323105205","products":["OXYGEN"],"primaryname":"Corp Brothers Holdings, LLC","add_country":"Germany","latitude":"47.77449","longitude":"11.375913"},{"duns_number":"326479834","products":["OXYGEN"],"primaryname":"Avrio Biopharmaceutical, LLC","add_country":"Germany","latitude":"49.023712","longitude":"12.159606"},{"duns_number":"338336589","products":["AMPICILLIN","AMPICILLIN AND SULBACTAM FOR INJECTION","AMPICILLIN FOR INJECTABLE SUSPENSION","AMPICILLIN FOR INJECTION","AMPICILLIN SODIUM","OXACILLIN FOR INJECTION","OXACILLIN INJECTION","OXACILLIN SODIUM","PIPERACILLIN","PIPERACILLIN AND TAZOBACTAM FOR INJECTION","PIPERACILLIN SODIUM","SULBACTAM SODIUM","TAZOBACTAM"],"primaryname":"Ascension Via Christi Home Medical Wichita, LLC","add_country":"Italy","latitude":"45.583524","longitude":"9.311028"},{"duns_number":"338454274","products":["NITROGEN","OXYGEN"],"primaryname":"Bickett Machine and Supply, Inc.","add_country":"Italy","latitude":"41.717186","longitude":"13.124877"},{"duns_number":"343390324","products":["CAPSAICIN","MENTHOL","METHYL SALICYLATE"],"primaryname":"Airgas Usa, LLC","add_country":"Germany","latitude":"48.961864","longitude":"9.845537"},{"duns_number":"343740283","products":["NITROGEN","OXYGEN"],"primaryname":"Advanced Apothecaries, Inc","add_country":"Germany","latitude":"51.631842","longitude":"7.422831"},{"duns_number":"344276063","products":["OXYGEN"],"primaryname":"Zhengda Tianqing Pharmaceuticals Group Co., Ltd.","add_country":"Germany","latitude":"52.039346","longitude":"8.378444"},{"duns_number":"351517789","products":["NITROGEN","NITROUS OXIDE","OXYGEN"],"primaryname":"Hospice Express, Inc.","add_country":"Sweden","latitude":"59.298485","longitude":"18.049476"},{"duns_number":"361725257","products":["DICLOFENAC SODIUM","DICLOFENAC SODIUM TOPICAL SOLUTION"],"primaryname":"Compressed Gases, Inc.","add_country":"United States","latitude":"42.512822","longitude":"-90.742737"},{"duns_number":"363348041","products":["OXYGEN"],"primaryname":"Airgas Usa, LLC","add_country":"United States","latitude":"43.60557","longitude":"-116.568165"},{"duns_number":"370696762","products":["NITROGEN","OXYGEN"],"primaryname":"Praxair Distribution, Inc.","add_country":"Belgium","latitude":"50.910032","longitude":"4.396899"},{"duns_number":"384668112","products":["OXYGEN"],"primaryname":"Purity Cylinder Gases, Inc.","add_country":"France","latitude":"47.941998","longitude":"1.951635"},{"duns_number":"38616769","products":["CARBON DIOXIDE","HELIUM","NITROGEN","NITROUS OXIDE","OXYGEN"],"primaryname":"ALKEM LABORATORIES LIMITED","add_country":"United States","latitude":"42.52757","longitude":"-85.836362"},{"duns_number":"421271843","products":["BACITRACIN","CHORIONIC GONADOTROPIN","CHORIONIC GONADOTROPIN FOR INJECTION","CYCLOSPORINE","CYCLOSPORINE INJECTION","DIHYDROERGOTAMINE MESYLATE","DIHYDROERGOTAMINE MESYLATE INJECTION","ETHANOLAMINE OLEATE","NEOMYCIN AND POLYMYXIN B SULFATES AND BACITRACIN OPHTHALMIC OINTMENT","NEOMYCIN AND POLYMYXIN B SULFATES AND BACITRACIN ZINC OPHTHALMIC OINTMENT","OLOPATADINE HYDROCHLORIDE OPHTHALMIC SOLUTION"],"primaryname":"Airgas Usa, LLC","add_country":"China","latitude":"37.45127","longitude":"116.31046"},{"duns_number":"421300564","products":["NITROGEN","NITROUS OXIDE","OXYGEN"],"primaryname":"Airgas Usa, LLC","add_country":"China","latitude":"39.14222","longitude":"117.17667"},{"duns_number":"428994180","products":["CARBON DIOXIDE","HELIUM","NITROGEN","NITROUS OXIDE","OXYGEN"],"primaryname":"Epi Health, LLC","add_country":"Italy","latitude":"43.710046","longitude":"11.503059"},{"duns_number":"429243025","products":["NITROGEN"],"primaryname":"Noven Pharmaceuticals, Inc.","add_country":"Italy","latitude":"45.417454","longitude":"9.367305"},{"duns_number":"431207075","products":["CARBON DIOXIDE","HELIUM","NITROGEN","OXYGEN"],"primaryname":"Airgas Usa, LLC","add_country":"Italy","latitude":"45.42315","longitude":"11.92239"},{"duns_number":"432126969","products":["AMPICILLIN","AMPICILLIN FOR INJECTABLE SUSPENSION","AMPICILLIN FOR INJECTION","AMPICILLIN SODIUM"],"primaryname":"DSM Nutritional Products AG Zweigniederlassung Werk Sisseln","add_country":"Italy","latitude":"45.599895","longitude":"9.37451"},{"duns_number":"438743601","products":["OXYGEN"],"primaryname":"EXCELVISION","add_country":"Italy","latitude":"45.555922","longitude":"9.606366"},{"duns_number":"450630343","products":["ALENDRONATE SODIUM"],"primaryname":"Fleming County Hospital District","add_country":"Portugal","latitude":"38.73517","longitude":"-9.28019"},{"duns_number":"467833930","products":["DEXAMETHASONE","SULFACETAMIDE","SULFACETAMIDE SODIUM","SULFACETAMIDE SODIUM OPHTHALMIC SOLUTION","TOBRAMYCIN","TOBRAMYCIN AND DEXAMETHASONE OPHTHALMIC SUSPENSION","TOBRAMYCIN SULFATE"],"primaryname":"CTX LIFESCIENCES PRIVATE LIMITED","add_country":"Spain","latitude":"41.528801","longitude":"2.225719"},{"duns_number":"47923372","products":["OXYGEN"],"primaryname":"Maverick Oxygen & Respiratory Equipment LLC","add_country":"United States","latitude":"33.85739","longitude":"-84.284068"},{"duns_number":"480093164","products":["OXYGEN"],"primaryname":"TABUK PHARMACEULICALS MANUFATURING COMPANY","add_country":"Switzerland","latitude":"46.14905","longitude":"6.95044"},{"duns_number":"480641935","products":["NATEGLINIDE","NATEGLINIDE TABLETS"],"primaryname":"MYLAN LABORATORIES LIMITED","add_country":"Switzerland","latitude":"46.03055","longitude":"8.91887"},{"duns_number":"481296960","products":["DEXMEDETOMIDINE INJECTION","DIAZEPAM","DIAZEPAM INJECTION","ICATIBANT ACETATE","ICATIBANT INJECTION","PROPOFOL","PROPOFOL INJECTABLE EMULSION","TREPROSTINIL","TREPROSTINIL INJECTION"],"primaryname":"Oncotec Pharma Produktion GmbH","add_country":"Switzerland","latitude":"46.341253","longitude":"8.973964"},{"duns_number":"482730327","products":["NAPROXEN","NAPROXEN DELAYED-RELEASE TABLETS","NAPROXEN SODIUM","NAPROXEN SODIUM TABLETS","NAPROXEN TABLETS","SUMATRIPTAN","SUMATRIPTAN SUCCINATE"],"primaryname":"Qingdao Baheal Pharmaceutical Co., Ltd.","add_country":"Switzerland","latitude":"45.965108","longitude":"8.921344"},{"duns_number":"482824026","products":["NITROGEN"],"primaryname":"LUPIN LIMITED","add_country":"Switzerland","latitude":"47.28863","longitude":"7.93858"},{"duns_number":"528106094","products":["CARBON DIOXIDE","HELIUM","NITROGEN","OXYGEN"],"primaryname":"Frontida Biopharm, Inc.","add_country":"China","latitude":"30.01102","longitude":"120.57153"},{"duns_number":"531132009","products":["BUPROPION HYDROBROMIDE EXTENDED-RELEASE TABLETS","BUPROPION HYDROCHLORIDE","BUPROPION HYDROCHLORIDE EXTENDED-RELEASE TABLETS"],"primaryname":"Central Medical Equipment Co.","add_country":"China","latitude":"29.56278","longitude":"106.55278"},{"duns_number":"533065806","products":["OXYGEN"],"primaryname":"Messer LLC","add_country":"Israel","latitude":"31.77902","longitude":"35.2253"},{"duns_number":"542977621","products":["OXYGEN"],"primaryname":"AMNEAL PHARMACEUTICALS PRIVATE LIMITED","add_country":"China","latitude":"34.59845","longitude":"119.21556"},{"duns_number":"543127229","products":["NITROGEN","OXYGEN"],"primaryname":"Pacific Pharma Inc","add_country":"France","latitude":"45.587782","longitude":"5.291859"},{"duns_number":"547707195","products":["NITROGEN","OXYGEN"],"primaryname":"Airgas Usa, LLC","add_country":"China","latitude":"39.9075","longitude":"116.39723"},{"duns_number":"554507599","products":["OXYGEN"],"primaryname":"MW ENCAP LIMITED","add_country":"China","latitude":"36.79056","longitude":"118.06333"},{"duns_number":"556931004","products":["NITROGEN","OXYGEN"],"primaryname":"Gate City Medical Equipment, Inc.","add_country":"United States","latitude":"32.182083","longitude":"-110.913633"},{"duns_number":"564165541","products":["OXYGEN"],"primaryname":"American Welding & Gas, Inc.","add_country":"Italy","latitude":"45.484614","longitude":"9.409766"},{"duns_number":"565567026","products":["CARBON DIOXIDE","HELIUM","NITROGEN","NITROUS OXIDE","OXYGEN"],"primaryname":"Mabscott Supply Company","add_country":"Bulgaria","latitude":"42.26374","longitude":"23.11112"},{"duns_number":"601128122","products":["OXYGEN"],"primaryname":"KYOWA PHARMA CHEMICAL CO.,LTD.","add_country":"United States","latitude":"45.590044","longitude":"-122.701556"},{"duns_number":"602249583","products":["CARBON DIOXIDE","HELIUM","NITROGEN","NITROUS OXIDE","OXYGEN"],"primaryname":"Catalent Pharma Solutions, Inc.","add_country":"United States","latitude":"36.714101","longitude":"-119.783855"},{"duns_number":"603606625","products":["RIVASTIGMINE","RIVASTIGMINE TARTRATE","RIVASTIGMINE TRANSDERMAL SYSTEM"],"primaryname":"Nlr Welding Supply, Inc.","add_country":"United States","latitude":"35.459606","longitude":"-94.773363"},{"duns_number":"603824496","products":["OXYGEN"],"primaryname":"Wyeth Holdings LLC","add_country":"United States","latitude":"27.872225","longitude":"-82.736826"},{"duns_number":"603889721","products":["BEVACIZUMAB","BEVACIZUMAB INJECTION","RITUXIMAB","RITUXIMAB INJECTION"],"primaryname":"Linde Gas North America LLC","add_country":"United States","latitude":"46.423527","longitude":"-116.994302"},{"duns_number":"605764828","products":["CLADRIBINE","CLADRIBINE INJECTION","METHOTREXATE","METHOTREXATE FOR INJECTION","METHOTREXATE INJECTION"],"primaryname":"Brainerd Medical Supply, Inc","add_country":"United States","latitude":"42.108745","longitude":"-87.870756"},{"duns_number":"607739240","products":["CALCIUM GLUCONATE","CALCIUM GLUCONATE INJECTION","CLINDAMYCIN FOR INJECTION","CLINDAMYCIN HYDROCHLORIDE","CLINDAMYCIN INJECTION","CLINDAMYCIN PALMITATE HYDROCHLORIDE","LEVETIRACETAM","LEVETIRACETAM INJECTION","LEVOFLOXACIN","LEVOFLOXACIN INJECTION","LINEZOLID","MAGNESIUM SULFATE","MAGNESIUM SULFATE IN DEXTROSE INJECTION","MAGNESIUM SULFATE INJECTION","MIDAZOLAM","MIDAZOLAM HYDROCHLORIDE","MIDAZOLAM INJECTION"],"primaryname":"Veloxis Pharmaceuticals, Inc.","add_country":"United States","latitude":"39.369528","longitude":"-76.504571"},{"duns_number":"620138961","products":["NITROGEN","OXYGEN"],"primaryname":"Chariton Health Systems Inc","add_country":"United States","latitude":"40.090114","longitude":"-75.345353"},{"duns_number":"620139126","products":["CARMUSTINE"],"primaryname":"ELI LILLY S.A.","add_country":"United States","latitude":"38.191856","longitude":"-85.68766"},{"duns_number":"621782218","products":["ACETAMINOPHEN","HYDROCODONE BITARTRATE","HYDROCODONE BITARTRATE AND ACETAMINOPHEN TABLETS"],"primaryname":"Quagen Pharmaceuticals LLC","add_country":"United States","latitude":"29.429889","longitude":"-98.484543"},{"duns_number":"622351435","products":["OXYGEN"],"primaryname":"Invagen Pharmaceuticals Inc.","add_country":"United States","latitude":"34.257347","longitude":"-85.160603"},{"duns_number":"627341670","products":["FLUOXETINE CAPSULES","MINOCYCLINE HYDROCHLORIDE","MINOCYCLINE HYDROCHLORIDE CAPSULES","MINOCYCLINE HYDROCHLORIDE TABLETS","MODAFINIL","MODAFINIL TABLETS","NITROFURANTOIN","NITROFURANTOIN CAPSULES","TROSPIUM CHLORIDE"],"primaryname":"Machine & Welding Supply Company","add_country":"United States","latitude":"41.744219","longitude":"-71.437428"},{"duns_number":"628112240","products":["PREDNISONE","PREDNISONE TABLETS"],"primaryname":"Roth Medical, Inc.","add_country":"United States","latitude":"28.022241","longitude":"-82.527528"},{"duns_number":"630431955","products":["HEPARIN SODIUM","HEPARIN SODIUM INJECTION"],"primaryname":"Analgesic Services, Inc.","add_country":"Italy","latitude":"45.574235","longitude":"9.017376"},{"duns_number":"647169494","products":["CARBON DIOXIDE","HELIUM","NITROGEN","NITROUS OXIDE","OXYGEN"],"primaryname":"Tolmar, Inc.","add_country":"Malta","latitude":"35.82682","longitude":"14.52745"},{"duns_number":"650082092","products":["OXYGEN"],"primaryname":"Darbun Enterprises Inc","add_country":"India","latitude":"17.45733","longitude":"78.36192"},{"duns_number":"650328805","products":["NITROGEN"],"primaryname":"Butler Gas Products Company","add_country":"India","latitude":"22.58829","longitude":"75.78271"},{"duns_number":"650372951","products":["NITROGEN","OXYGEN"],"primaryname":"Yichang Humanwell Oral Solid Dosage Plant","add_country":"India","latitude":"17.36172","longitude":"78.47517"},{"duns_number":"650441632","products":["CONJUGATED ESTROGENS","SYNTHETIC CONJUGATED ESTROGENS VAGINAL CREAM"],"primaryname":"Impax Laboratories, Inc.","add_country":"India","latitude":"30.99913","longitude":"76.46491"},{"duns_number":"650459006","products":["DIPHENHYDRAMINE HYDROCHLORIDE","DIPHENHYDRAMINE HYDROCHLORIDE CAPSULES","PREDNISONE","PREDNISONE TABLETS"],"primaryname":"Airgas Usa, LLC","add_country":"India","latitude":"19.80347","longitude":"72.74905"},{"duns_number":"650474468","products":["ACYCLOVIR","ACYCLOVIR ORAL SUSPENSION","FLUOCINOLONE ACETONIDE","MESALAMINE","MESALAMINE SUPPOSITORIES","MICONAZOLE","MICONAZOLE NITRATE","PENCICLOVIR","PETROLATUM","URSODIOL","URSODIOL TABLETS","WHITE PETROLATUM","ZINC OXIDE"],"primaryname":"Texas Medical, Inc.","add_country":"India","latitude":"12.95704","longitude":"79.31062"},{"duns_number":"650478121","products":["OXYGEN"],"primaryname":"Ameri-Quipt of North Carolina, Inc.","add_country":"India","latitude":"22.94458","longitude":"72.48807"},{"duns_number":"650565703","products":["OXYGEN"],"primaryname":"Messer LLC","add_country":"India","latitude":"19.89929","longitude":"75.31949"},{"duns_number":"650918514","products":["DOXERCALCIFEROL","DOXERCALCIFEROL INJECTION","ENOXAPARIN SODIUM","ENOXAPARIN SODIUM INJECTION","MIPOMERSEN SODIUM","MIPOMERSEN SODIUM INJECTION","PLERIXAFOR","PLERIXAFOR INJECTION"],"primaryname":"Mercy Medical Supply","add_country":"India","latitude":"13.92559","longitude":"79.81682"},{"duns_number":"650996940","products":["OXYGEN"],"primaryname":"Mtb Oxygen & Equipment Company of Toledo Ltd.","add_country":"India","latitude":"22.71269","longitude":"72.44259"},{"duns_number":"654106418","products":["DOXERCALCIFEROL","DOXERCALCIFEROL CAPSULES"],"primaryname":"Schering Plough Labo","add_country":"China","latitude":"33.07278","longitude":"107.03028"},{"duns_number":"654520048","products":["ACETAMINOPHEN","ACETAZOLAMIDE","ACETAZOLAMIDE EXTENDED-RELEASE CAPSULES","ACETAZOLAMIDE FOR INJECTION","ACETYLCYSTEINE","ACYCLOVIR","ACYCLOVIR FOR INJECTION","ACYCLOVIR INJECTION","AMIODARONE HYDROCHLORIDE","AMIODARONE HYDROCHLORIDE TABLETS","AMLODIPINE BESYLATE","AMLODIPINE BESYLATE TABLETS","ANASTROZOLE","ANASTROZOLE TABLETS","ARIPIPRAZOLE","ARIPIPRAZOLE ORALLY DISINTEGRATING TABLETS","ARIPIPRAZOLE TABLETS","ASPIRIN","ASPIRIN AND DIPYRIDAMOLE EXTENDED-RELEASE CAPSULES","ATENOLOL","ATENOLOL TABLETS","ATOMOXETINE CAPSULES","ATOMOXETINE HYDROCHLORIDE","AZATHIOPRINE","AZATHIOPRINE TABLETS","AZELASTINE HYDROCHLORIDE","BENAZEPRIL HYDROCHLORIDE","BENAZEPRIL HYDROCHLORIDE TABLETS","BENZONATATE","BENZONATATE CAPSULES","BENZTROPINE MESYLATE","BENZTROPINE MESYLATE INJECTION","BICALUTAMIDE","BICALUTAMIDE TABLETS","BROMOCRIPTINE MESYLATE","BROMOCRIPTINE MESYLATE CAPSULES","BUPROPION HYDROBROMIDE EXTENDED-RELEASE TABLETS","BUPROPION HYDROCHLORIDE","BUPROPION HYDROCHLORIDE EXTENDED-RELEASE TABLETS","BUSPIRONE HYDROCHLORIDE","BUSPIRONE HYDROCHLORIDE TABLETS","CANDESARTAN CILEXETIL","CANDESARTAN CILEXETIL AND HYDROCHLOROTHIAZIDE TABLETS","CANDESARTAN CILEXETIL TABLETS","CARBAMAZEPINE","CARBAMAZEPINE EXTENDED-RELEASE TABLETS","CARVEDILOL","CARVEDILOL TABLETS","CLINDAMYCIN HYDROCHLORIDE","CLINDAMYCIN HYDROCHLORIDE CAPSULES","CLINDAMYCIN PALMITATE HYDROCHLORIDE","CLONIDINE","CLONIDINE HYDROCHLORIDE","CLONIDINE HYDROCHLORIDE INJECTION","CLOPIDOGREL BISULFATE","CLOPIDOGREL TABLETS","DESMOPRESSIN ACETATE","DESMOPRESSIN NASAL SPRAY SOLUTION","DESVENLAFAXINE","DESVENLAFAXINE EXTENDED-RELEASE TABLETS","DEXMEDETOMIDINE INJECTION","DIPYRIDAMOLE","DIPYRIDAMOLE TABLETS","DIVALPROEX SODIUM","DIVALPROEX SODIUM DELAYED-RELEASE CAPSULES","DIVALPROEX SODIUM DELAYED-RELEASE TABLETS","DIVALPROEX SODIUM EXTENDED-RELEASE TABLETS","DONEPEZIL HYDROCHLORIDE","DONEPEZIL HYDROCHLORIDE ORALLY DISINTEGRATING TABLETS","DONEPEZIL HYDROCHLORIDE TABLETS","DOXYCYCLINE","DOXYCYCLINE FOR INJECTION","DOXYCYCLINE HYCLATE","DULOXETINE DELAYED-RELEASE CAPSULES","DULOXETINE HYDROCHLORIDE","DUTASTERIDE","DUTASTERIDE AND TAMSULOSIN HYDROCHLORIDE CAPSULES","DUTASTERIDE CAPSULES","ETHACRYNATE SODIUM FOR INJECTION","ETODOLAC","ETODOLAC EXTENDED-RELEASE TABLETS","ETOMIDATE","ETOMIDATE INJECTION","EZETIMIBE","EZETIMIBE TABLETS","FESOTERODINE FUMARATE","FESOTERODINE FUMARATE EXTENDED-RELEASE TABLETS","FINASTERIDE","FINASTERIDE TABLETS","GABAPENTIN","GABAPENTIN TABLETS","GALANTAMINE TABLETS","GEMFIBROZIL","GEMFIBROZIL TABLETS","GLIPIZIDE","GLIPIZIDE AND METFORMIN HYDROCHLORIDE TABLETS","GLIPIZIDE EXTENDED-RELEASE TABLETS","HALOPERIDOL","HALOPERIDOL TABLETS","HYDROCHLOROTHIAZIDE","HYDROXYCHLOROQUINE SULFATE","HYDROXYCHLOROQUINE SULFATE TABLETS","INDOMETHACIN","INDOMETHACIN CAPSULES","INDOMETHACIN EXTENDED-RELEASE CAPSULES","INDOMETHACIN SODIUM","IRBESARTAN","IRBESARTAN TABLETS","ITRACONAZOLE","ITRACONAZOLE CAPSULES","LAMOTRIGINE","LAMOTRIGINE TABLETS","LANSOPRAZOLE","LANSOPRAZOLE DELAYED-RELEASE CAPSULES","LEVETIRACETAM","LEVETIRACETAM TABLETS","LEVOFLOXACIN","LEVOFLOXACIN INJECTION","LEVOFLOXACIN TABLETS","LOSARTAN POTASSIUM","LOSARTAN POTASSIUM AND HYDROCHLOROTHIAZIDE TABLETS","LOSARTAN POTASSIUM TABLETS","MELOXICAM","MELOXICAM TABLETS","MEMANTINE HYDROCHLORIDE","MEMANTINE HYDROCHLORIDE EXTENDED RELEASE CAPSULES","MEMANTINE HYDROCHLORIDE TABLETS","MESALAMINE","MESALAMINE DELAYED-RELEASE TABLETS","METFORMIN HYDROCHLORIDE","METFORMIN HYDROCHLORIDE EXTENDED-RELEASE TABLETS","METFORMIN HYDROCHLORIDE TABLETS","METHYLPREDNISOLONE","METHYLPREDNISOLONE SODIUM SUCCINATE","METHYLPREDNISOLONE TABLETS","MYCOPHENOLATE MOFETIL","MYCOPHENOLATE MOFETIL CAPSULES","MYCOPHENOLATE MOFETIL FOR INJECTION","MYCOPHENOLATE MOFETIL TABLETS","NAPROXEN","NAPROXEN SODIUM TABLETS","NAPROXEN TABLETS","NIFEDIPINE","NIFEDIPINE EXTENDED-RELEASE TABLETS","NITROFURANTOIN","NITROFURANTOIN CAPSULES","OLANZAPINE","OLANZAPINE PAMOATE","OLANZAPINE TABLETS","OMEPRAZOLE","OMEPRAZOLE AND SODIUM BICARBONATE CAPSULES","OMEPRAZOLE DELAYED-RELEASE CAPSULES","OMEPRAZOLE MAGNESIUM","OXYBUTYNIN CHLORIDE","OXYBUTYNIN CHLORIDE EXTENDED-RELEASE TABLETS","PAROXETINE HYDROCHLORIDE","PAROXETINE MESYLATE TABLETS","PAROXETINE TABLETS","PHENTERMINE HYDROCHLORIDE","PHENTERMINE HYDROCHLORIDE ORALLY DISINTEGRATING TABLETS","PIOGLITAZONE HYDROCHLORIDE","PIOGLITAZONE TABLETS","PITAVASTATIN","PITAVASTATIN TABLETS","PRAMIPEXOLE DIHYDROCHLORIDE","PRAMIPEXOLE DIHYDROCHLORIDE EXTENDED-RELEASE TABLETS","PRAVASTATIN SODIUM","PRAVASTATIN SODIUM TABLETS","PROMETHAZINE HYDROCHLORIDE","PROMETHAZINE HYDROCHLORIDE TABLETS","PROPRANOLOL HYDROCHLORIDE","PROPRANOLOL HYDROCHLORIDE EXTENDED-RELEASE CAPSULES","RAMIPRIL","RAMIPRIL CAPSULES","RAMIPRIL TABLETS","RANITIDINE HYDROCHLORIDE","RANITIDINE IN SODIUM CHLORIDE INJECTION","RANITIDINE INJECTION","RIBAVIRIN","RIBAVIRIN CAPSULES","RIBAVIRIN TABLETS","RISEDRONATE SODIUM","RISEDRONATE SODIUM DELAYED-RELEASE TABLETS","RISPERIDONE","RISPERIDONE ORALLY DISINTEGRATING TABLETS","RISPERIDONE TABLETS","ROPINIROLE HYDROCHLORIDE","ROPINIROLE TABLETS","SERTRALINE HYDROCHLORIDE","SERTRALINE HYDROCHLORIDE TABLETS","SIMVASTATIN","SIMVASTATIN TABLETS","SIROLIMUS","SODIUM BICARBONATE","SUCCINYLCHOLINE CHLORIDE","SUCCINYLCHOLINE CHLORIDE INJECTION","TADALAFIL","TADALAFIL TABLETS","TAMSULOSIN HYDROCHLORIDE","TAMSULOSIN HYDROCHLORIDE CAPSULES","TELMISARTAN","TELMISARTAN AND HYDROCHLOROTHIAZIDE TABLETS","TELMISARTAN TABLETS","TOPIRAMATE","TOPIRAMATE CAPSULES","TOPIRAMATE EXTENDED-RELEASE CAPSULES","TOPIRAMATE TABLETS","TRAMADOL HYDROCHLORIDE","TRAMADOL HYDROCHLORIDE AND ACETAMINOPHEN TABLETS","TRAMADOL HYDROCHLORIDE TABLETS","TRANEXAMIC ACID","TRANEXAMIC ACID INJECTION","VALACYCLOVIR HYDROCHLORIDE","VALACYCLOVIR TABLETS","VALSARTAN","VALSARTAN AND HYDROCHLOROTHIAZIDE TABLETS","VENLAFAXINE HYDROCHLORIDE","VENLAFAXINE HYDROCHLORIDE EXTENDED-RELEASE CAPSULES","VENLAFAXINE TABLETS","VORICONAZOLE","WARFARIN SODIUM","WARFARIN SODIUM TABLETS","ZOLMITRIPTAN","ZOLMITRIPTAN ORALLY DISINTEGRATING TABLETS","ZONISAMIDE","ZONISAMIDE CAPSULES"],"primaryname":"Lilly Del Caribe, Inc.","add_country":"China","latitude":"31.22222","longitude":"121.45806"},{"duns_number":"656044344","products":["NITROGLYCERIN SUBLINGUAL TABLETS"],"primaryname":"American Homecare Supply, LLC","add_country":"Taiwan","latitude":"23.070808","longitude":"120.295821"},{"duns_number":"656108149","products":["HYDROCHLOROTHIAZIDE","IRBESARTAN","IRBESARTAN AND HYDROCHLOROTHIAZIDE TABLETS","IRBESARTAN TABLETS","RASBURICASE","RASBURICASE FOR INJECTION"],"primaryname":"Akorn Operating Company LLC","add_country":"Taiwan","latitude":"24.37901","longitude":"120.64689"},{"duns_number":"656118783","products":["CHORIONIC GONADOTROPIN","CHORIONIC GONADOTROPIN FOR INJECTION","DROSPIRENONE","ESTRADIOL","ESTRADIOL ACETATE","ESTRADIOL VAGINAL CREAM","ETHINYL ESTRADIOL","ETHINYL ESTRADIOL TABLETS","LEVONORGESTREL","LEVONORGESTREL AND ETHINYL ESTRADIOL TABLETS","NORETHINDRONE","NORGESTIMATE","TESTOSTERONE","TESTOSTERONE CYPIONATE","TESTOSTERONE TOPICAL SOLUTION"],"primaryname":"Andapharm LLC","add_country":"Taiwan","latitude":"23.035154","longitude":"120.292535"},{"duns_number":"675484209","products":["OXYGEN"],"primaryname":"Messer LLC","add_country":"India","latitude":null,"longitude":null},{"duns_number":"676115028","products":["NITROGEN","OXYGEN"],"primaryname":"Norco, Inc.","add_country":"India","latitude":"30.91011","longitude":"77.09669"},{"duns_number":"677175302","products":["OXYGEN"],"primaryname":"OHM Laboratories Inc.","add_country":"India","latitude":"19.16043","longitude":"72.84271"},{"duns_number":"677318200","products":["NITROGEN","OXYGEN"],"primaryname":"Pfizer Manufacturing Ireland Unlimited Company","add_country":"India","latitude":"17.54916","longitude":"78.21319"},{"duns_number":"677600414","products":["BUDESONIDE","BUDESONIDE EXTENDED-RELEASE TABLETS","BUPROPION HYDROBROMIDE EXTENDED-RELEASE TABLETS","BUPROPION HYDROCHLORIDE","BUPROPION HYDROCHLORIDE EXTENDED-RELEASE TABLETS","DILTIAZEM HYDROCHLORIDE","DILTIAZEM HYDROCHLORIDE EXTENDED-RELEASE CAPSULES","DOXYLAMINE SUCCINATE","DOXYLAMINE SUCCINATE AND PYRIDOXINE HYDROCHLORIDE DELAYED-RELEASE TABLETS","MESALAMINE","MESALAMINE DELAYED-RELEASE TABLETS","METOPROLOL FUMARATE","METOPROLOL SUCCINATE","METOPROLOL SUCCINATE EXTENDED-RELEASE CAPSULES","METOPROLOL SUCCINATE EXTENDED-RELEASE TABLETS","PYRIDOXINE HYDROCHLORIDE"],"primaryname":"UMEDICA LABORATORIES PRIVATE LIMITED","add_country":"India","latitude":"15.16151","longitude":"73.97785"},{"duns_number":"677605851","products":["OXYGEN"],"primaryname":"Praxair Distribution, Inc.","add_country":"India","latitude":"30.96203","longitude":"76.79373"},{"duns_number":"677605858","products":["AMPHETAMINE MIXED SALTS EXTENDED-RELEASE CAPSULES","AMPHETAMINE SULFATE","CABERGOLINE","CABERGOLINE TABLETS","CLOMIPHENE CITRATE","CLOMIPHENE CITRATE TABLETS","DEXTROAMPHETAMINE SULFATE","DOXEPIN HYDROCHLORIDE","DOXEPIN HYDROCHLORIDE CAPSULES","GLYCOPYRROLATE","GLYCOPYRROLATE TABLETS","HYDROXYUREA","HYDROXYUREA CAPSULES","ISOSORBIDE DINITRATE TABLETS","MEGESTROL ACETATE","MEGESTROL ACETATE ORAL SUSPENSION","MEMANTINE HYDROCHLORIDE","MEMANTINE HYDROCHLORIDE EXTENDED RELEASE CAPSULES","METHIMAZOLE","METHIMAZOLE TABLETS","NATEGLINIDE","NATEGLINIDE TABLETS","OLANZAPINE","OLANZAPINE ORALLY DISINTEGRATING TABLETS","OLANZAPINE PAMOATE","TRAMADOL HYDROCHLORIDE","TRAMADOL HYDROCHLORIDE EXTENDED-RELEASE TABLETS","TRANYLCYPROMINE SULFATE","TRANYLCYPROMINE TABLETS","ZOLPIDEM TARTRATE","ZOLPIDEM TARTRATE EXTENDED-RELEASE TABLETS"],"primaryname":"Arc3 Gases Inc.","add_country":"India","latitude":"30.91011","longitude":"77.09669"},{"duns_number":"690539713","products":["NAPROXEN","NAPROXEN SODIUM TABLETS","NAPROXEN TABLETS","POTASSIUM CHLORIDE","POTASSIUM CHLORIDE EXTENDED-RELEASE CAPSULES"],"primaryname":"Sanford Healthcare Accessories, L.L.C.","add_country":"Japan","latitude":"33.36667","longitude":"130.51667"},{"duns_number":"690852371","products":["AMPHETAMINE MIXED SALTS EXTENDED-RELEASE CAPSULES","AMPHETAMINE SULFATE","DEXTROAMPHETAMINE SULFATE"],"primaryname":"F.I.S. FABBRICA ITALIANA SINTETICI SPA","add_country":"Japan","latitude":"36.75","longitude":"137.01667"},{"duns_number":"69148931","products":["SODIUM FLUORIDE","SODIUM FLUORIDE GEL"],"primaryname":"Lloyd, Inc. of Iowa","add_country":"United States","latitude":"42.331785","longitude":"-88.125136"},{"duns_number":"711530311","products":["OXYGEN"],"primaryname":"MSD INTERNATIONAL GMBH (SINGAPORE BRANCH)","add_country":"Japan","latitude":"35.3","longitude":"136.65"},{"duns_number":"718240992","products":["OXYGEN"],"primaryname":"Janssen Biologics B.V.","add_country":"Japan","latitude":"36.75","longitude":"137.01667"},{"duns_number":"763683216","products":["NITROGEN","OXYGEN"],"primaryname":"Praxair Distribution, Inc.","add_country":"France","latitude":"44.928537","longitude":"-0.471821"},{"duns_number":"780379306","products":["OXYGEN"],"primaryname":"Airgas USA LLC","add_country":"United States","latitude":"41.553154","longitude":"-87.813091"},{"duns_number":"783179463","products":["CYCLOBENZAPRINE HYDROCHLORIDE","CYCLOBENZAPRINE HYDROCHLORIDE TABLETS","LOVASTATIN","LOVASTATIN EXTENDED-RELEASE TABLETS"],"primaryname":"Gibbs Welding Supply, Inc.","add_country":"United States","latitude":"40.639791","longitude":"-75.447642"},{"duns_number":"783982093","products":["SIMVASTATIN"],"primaryname":"Amsino Healthcare (usa) Inc.","add_country":"United States","latitude":"25.978432","longitude":"-80.281608"},