[{"Manufacturer":"Apotex Inc","Manufacturing Type":"MANUFACTURE","Products":["Oxygen"],"City":"Lincoln","Country":"United States","Application Data":"Yes","Activeness Flag":"Unknown","latitude":"41.916328","longitude":"-71.480167"},{"Manufacturer":"HETERO LABS LIMITED","Manufacturing Type":"MANUFACTURE","Products":["Oxygen"],"City":"South Plainfield","Country":"United States","Application Data":"Yes","Activeness Flag":"Unknown","latitude":"40.560018","longitude":"-74.407869"},{"Manufacturer":"Alvogen Inc.","Manufacturing Type":"MANUFACTURE","Products":["Oxygen"],"City":"Buffalo","Country":"United States","Application Data":"Yes","Activeness Flag":"Unknown","latitude":"42.86302","longitude":"-78.85834"},{"Manufacturer":"Praxair Distribution, Inc.","Manufacturing Type":"MANUFACTURE","Products":["Chlorhexidine Gluconate Oral Rinse"],"City":"Bethlehem","Country":"United States","Application Data":"Yes","Activeness Flag":"Unknown","latitude":"40.62155","longitude":"-75.356206"},{"Manufacturer":"Airgas Usa, LLC","Manufacturing Type":"MANUFACTURE","Products":["Acetaminophen","Acetazolamide","Acetazolamide For Injection","Adenosine","Adenosine Injection","Ampicillin","Ampicillin And Sulbactam For Injection","Ampicillin Sodium","Azithromycin","Azithromycin For Injection","Baclofen","Baclofen Injection","Benzoyl Peroxide Gel","Caspofungin Acetate","Caspofungin For Injection","Clindamycin And Benzoyl Peroxide Topical Gel","Clindamycin For Injection","Clindamycin Hydrochloride","Clindamycin Injection","Clindamycin Palmitate Hydrochloride","Clindamycin Phosphate Topical Solution","Clobetasol Propionate","Clofarabine","Clofarabine Injection","Cyanocobalamin","Cyanocobalamin Injection","Cytarabine","Cytarabine For Injection","Dactinomycin","Dactinomycin For Injection","Daptomycin","Daptomycin For Injection","Dexmedetomidine Injection","Dexpanthenol","Docetaxel","Docetaxel Injection","Doxycycline","Doxycycline For Injection","Doxycycline Hyclate","Doxylamine Succinate","Doxylamine Succinate And Pyridoxine Hydrochloride Delayed-release Tablets","Eptifibatide","Esmolol Hydrochloride","Esmolol Hydrochloride Injection","Esomeprazole Magnesium","Esomeprazole Sodium","Esomeprazole Sodium For Injection","Ethinyl Estradiol","Ethinyl Estradiol Tablets","Etomidate","Etomidate Injection","Famotidine","Famotidine Injection","Flumazenil","Flumazenil Injection","Fluphenazine Decanoate","Fluphenazine Enanthate","Fluphenazine Hydrochloride Injection","Fosaprepitant Dimeglumine","Fosaprepitant For Injection","Fosphenytoin Sodium","Fosphenytoin Sodium Injection","Gemcitabine For Injection","Gemcitabine Hydrochloride","Granisetron","Granisetron Hydrochloride","Granisetron Hydrochloride Injection","Haloperidol","Haloperidol Decanoate","Haloperidol Injection","Heparin Sodium","Heparin Sodium Injection","Leucovorin Calcium","Leucovorin Calcium For Injection","Leucovorin Calcium Injection","Levonorgestrel","Levonorgestrel And Ethinyl Estradiol Tablets","Linezolid","Medroxyprogesterone Acetate","Medroxyprogesterone Acetate Injectable Suspension","Mitomycin","Mitomycin For Injection","Moxifloxacin Hydrochloride","Moxifloxacin In Sodium Chloride Injection","Niacinamide","Norepinephrine Bitartrate","Norepinephrine Bitartrate Injection","Pamidronate Disodium","Pamidronate Disodium For Injection","Paricalcitol","Paricalcitol Injection","Prochlorperazine","Prochlorperazine Edisylate","Prochlorperazine Edisylate Injection","Prochlorperazine Maleate","Pyridoxine Hydrochloride","Riboflavin","Rifampin","Rifampin For Injection","Sildenafil Citrate","Sildenafil Tablets","Sodium Nitroprusside","Sulbactam Sodium","Sulfamethoxazole","Sulfamethoxazole And Trimethoprim Injection","Tobramycin","Tobramycin Injection","Tobramycin Sulfate","Topotecan For Injection","Topotecan Hydrochloride","Topotecan Injection","Trimethoprim","Trimethoprim Sulfate","Vancomycin","Vancomycin Hydrochloride","Vancomycin Hydrochloride For Injection","Vancomycin Injection","Vecuronium Bromide","Vecuronium Bromide For Injection","Zoledronic Acid","Zoledronic Acid Injection"],"City":"Baton Rouge","Country":"United States","Application Data":"Yes","Activeness Flag":"Unknown","latitude":"30.470665","longitude":"-91.138991"},{"Manufacturer":"Professionals Prn LLC","Manufacturing Type":"MANUFACTURE","Products":["Ciprofloxacin","Ciprofloxacin Extended-release Tablets","Ciprofloxacin Hydrochloride"],"City":"Conshohocken","Country":"United States","Application Data":"Yes","Activeness Flag":"Unknown","latitude":"40.073377","longitude":"-75.308311"},{"Manufacturer":"Aurolife Pharma LLC","Manufacturing Type":"MANUFACTURE","Products":["Desflurane","Isoflurane","Sevoflurane"],"City":"Ashtabula","Country":"United States","Application Data":"Yes","Activeness Flag":"Unknown","latitude":"41.913288","longitude":"-80.756187"},{"Manufacturer":"Air Liquide Large Industries U.S. LP","Manufacturing Type":"API MANUFACTURE","Products":["Cobicistat","Darunavir","Emtricitabine","Tenofovir Alafenamide","Tenofovir Alafenamide Fumarate"],"City":"Cincinnati","Country":"United States","Application Data":"Yes","Activeness Flag":"Unknown","latitude":"39.106863","longitude":"-84.535586"},{"Manufacturer":"Pillar5 Pharma Inc","Manufacturing Type":"MANUFACTURE","Products":["Helium","Oxygen"],"City":"Lone Star","Country":"United States","Application Data":"Yes","Activeness Flag":"Unknown","latitude":"32.939023","longitude":"-94.698288"},{"Manufacturer":"Airgas Usa, LLC","Manufacturing Type":"MANUFACTURE","Products":["Nitrogen","Oxygen"],"City":"Nampa","Country":"United States","Application Data":"Yes","Activeness Flag":"Unknown","latitude":"43.602227","longitude":"-116.595114"},{"Manufacturer":"Biomarin Pharmaceutical Inc.","Manufacturing Type":"API MANUFACTURE","Products":["Oxygen"],"City":"Fort Smith","Country":"United States","Application Data":"Yes","Activeness Flag":"Unknown","latitude":"35.312128","longitude":"-94.423206"},{"Manufacturer":"Matheson Tri-Gas, Inc.","Manufacturing Type":"MANUFACTURE","Products":["Isopropyl Alcohol","Isopropyl Rubbing Alcohol","Ritonavir","Ritonavir Oral Solution","Ritonavir Tablets","Rubbing Alcohol","Sevoflurane"],"City":"Grand Rapids","Country":"United States","Application Data":"Yes","Activeness Flag":"Unknown","latitude":"42.960717","longitude":"-85.680433"},{"Manufacturer":"Encompass Medical & Specialty Gases Ltd","Manufacturing Type":"MANUFACTURE","Products":["Albuterol","Albuterol Inhalation Solution","Albuterol Sulfate","Ipratropium Bromide","Ipratropium Bromide Inhalation Solution"],"City":"Saint Cloud","Country":"United States","Application Data":"Yes","Activeness Flag":"Unknown","latitude":"45.550028","longitude":"-94.18923"},{"Manufacturer":"Minneapolis Oxygen Company","Manufacturing Type":"MANUFACTURE","Products":["Oxygen"],"City":"Tempe","Country":"United States","Application Data":"Yes","Activeness Flag":"Unknown","latitude":"33.440285","longitude":"-111.924568"},{"Manufacturer":"Polypeptide Laboratories A\/S","Manufacturing Type":"API MANUFACTURE","Products":["Colesevelam Hydrochloride","Colesevelam Hydrochloride Tablets"],"City":"Salt Lake City","Country":"United States","Application Data":"Yes","Activeness Flag":"Unknown","latitude":"40.730412","longitude":"-111.989763"},{"Manufacturer":"J & A Medical Home Care Inc","Manufacturing Type":"API MANUFACTURE","Products":["Oxygen"],"City":"Madison Heights","Country":"United States","Application Data":"Yes","Activeness Flag":"Unknown","latitude":"42.479269","longitude":"-83.084693"},{"Manufacturer":"Affordable Transport Inc.","Manufacturing Type":"MANUFACTURE","Products":["Oxygen"],"City":"Shenandoah","Country":"United States","Application Data":"Yes","Activeness Flag":"Unknown","latitude":"40.765009","longitude":"-95.372714"},{"Manufacturer":"Jerome Stevens Pharmaceuticals, Inc.","Manufacturing Type":"MANUFACTURE","Products":["Nitrogen"],"City":"Indiana","Country":"United States","Application Data":"Yes","Activeness Flag":"Unknown","latitude":"40.607608","longitude":"-79.173112"},{"Manufacturer":"Messer LLC","Manufacturing Type":"MANUFACTURE","Products":["Budesonide","Formoterol Fumarate","Glycopyrrolate"],"City":"Oakwood Village","Country":"United States","Application Data":"Yes","Activeness Flag":"Unknown","latitude":"41.376326","longitude":"-81.511232"},{"Manufacturer":"Sky Oxygen, Inc.","Manufacturing Type":"MANUFACTURE","Products":["Oxygen"],"City":"Morristown","Country":"United States","Application Data":"Yes","Activeness Flag":"Unknown","latitude":"40.799866","longitude":"-74.45102"},{"Manufacturer":"PERRIGO ISRAEL PHARMACEUTICALS LTD.","Manufacturing Type":"MANUFACTURE","Products":["Ephedrine","Ephedrine Sulfate","Ephedrine Sulfate Injection"],"City":"Rogers","Country":"United States","Application Data":"Yes","Activeness Flag":"Unknown","latitude":"36.348768","longitude":"-94.116489"},{"Manufacturer":"Matheson Tri-Gas, Inc.","Manufacturing Type":"MANUFACTURE","Products":["Oxygen"],"City":"Clifton","Country":"United States","Application Data":"Yes","Activeness Flag":"Unknown","latitude":"40.877665","longitude":"-74.161052"},{"Manufacturer":"Braintree Laboratories, Inc.","Manufacturing Type":"MANUFACTURE","Products":["Nitrogen","Oxygen"],"City":"National City","Country":"United States","Application Data":"Yes","Activeness Flag":"Unknown","latitude":"32.659909","longitude":"-117.112928"},{"Manufacturer":"Perrigo Company","Manufacturing Type":"MANUFACTURE","Products":["Oxygen"],"City":"Johnstown","Country":"United States","Application Data":"Yes","Activeness Flag":"Unknown","latitude":"40.318361","longitude":"-78.912477"},{"Manufacturer":"Scott Medical Supply Incorporated","Manufacturing Type":"MANUFACTURE","Products":["Oxygen"],"City":"McKees Rocks","Country":"United States","Application Data":"Yes","Activeness Flag":"Unknown","latitude":"40.482726","longitude":"-80.065568"},{"Manufacturer":"Air Products and Chemicals, Inc.","Manufacturing Type":"MANUFACTURE","Products":["Nitrogen","Oxygen"],"City":"Research Triangle Park","Country":"United States","Application Data":"Yes","Activeness Flag":"Unknown","latitude":"35.912216","longitude":"-78.877874"},{"Manufacturer":"Alpinaire Healthcare","Manufacturing Type":"MANUFACTURE","Products":["Nitrofurantoin","Nitrofurantoin Capsules"],"City":"Weston","Country":"United States","Application Data":"Yes","Activeness Flag":"Unknown","latitude":"26.08094","longitude":"-80.370291"},{"Manufacturer":"AUROBINDO PHARMA LIMITED","Manufacturing Type":"MANUFACTURE","Products":["Nitrogen"],"City":"Damariscotta","Country":"United States","Application Data":"Yes","Activeness Flag":"Unknown","latitude":"44.047199","longitude":"-69.503784"},{"Manufacturer":"Jiujiang ZhongTian Pharmaceutical Co., Ltd.","Manufacturing Type":"API MANUFACTURE","Products":["Nitrogen","Oxygen"],"City":"Tallahassee","Country":"United States","Application Data":"Yes","Activeness Flag":"Unknown","latitude":"30.417175","longitude":"-84.302252"},{"Manufacturer":"GENZYME LIMITED","Manufacturing Type":"MANUFACTURE","Products":["Nitrogen"],"City":"La Crosse","Country":"United States","Application Data":"Yes","Activeness Flag":"Unknown","latitude":"43.829248","longitude":"-91.241743"},{"Manufacturer":"Machine & Welding Supply Company","Manufacturing Type":"MANUFACTURE","Products":["Hydroquinone","Hydroquinone Cream"],"City":"Canton","Country":"United States","Application Data":"Yes","Activeness Flag":"Unknown","latitude":"40.786643","longitude":"-81.349587"},{"Manufacturer":"Hainan POLY Pharm.Co.,Ltd.","Manufacturing Type":"MANUFACTURE","Products":["Oxygen"],"City":"Bedford","Country":"United States","Application Data":"Yes","Activeness Flag":"Unknown","latitude":"41.3655","longitude":"-81.50844"},{"Manufacturer":"Par Pharmaceutical, Inc.","Manufacturing Type":"MANUFACTURE","Products":["Carbon Dioxide","Helium","Nitrogen","Nitrous Oxide","Oxygen"],"City":"Martins Ferry","Country":"United States","Application Data":"Yes","Activeness Flag":"Unknown","latitude":"40.099153","longitude":"-80.722978"},{"Manufacturer":"Ferndale Laboratories Inc","Manufacturing Type":"MANUFACTURE","Products":["Carbon Dioxide","Nitrogen","Nitrous Oxide","Oxygen"],"City":"Butte","Country":"United States","Application Data":"Yes","Activeness Flag":"Unknown","latitude":"45.96769","longitude":"-112.51536"},{"Manufacturer":"Arkansas Welding Supply, Inc.","Manufacturing Type":"MANUFACTURE","Products":["Amlodipine Besylate","Aspirin","Atropine","Atropine Sulfate","Bromocriptine Mesylate","Bromocriptine Mesylate Tablets","Buspirone Hydrochloride","Buspirone Hydrochloride Tablets","Crofelemer","Crofelemer Delayed-release Tablets","Demeclocycline","Demeclocycline Hydrochloride","Demeclocycline Hydrochloride Tablets","Diphenoxylate Hydrochloride","Diphenoxylate Hydrochloride And Atropine Sulfate Tablets","Doxepin Tablets","Empagliflozin","Esomeprazole Magnesium","Esomeprazole Sodium","Ethacrynate Sodium For Injection","Gemifloxacin Mesylate","Glipizide","Glipizide Extended-release Tablets","Hydroxyzine Pamoate","Hydroxyzine Pamoate Capsules","Linagliptin","Lisdexamfetamine Dimesylate","Metformin Hydrochloride","Methenamine","Methenamine Hippurate","Methenamine Hippurate Tablets","Methenamine Mandelate Tablets","Methenamine Tablets","Naproxen","Naproxen And Esomeprazole Magnesium Delayed-release Tablets","Nifedipine","Nifedipine Extended-release Tablets","Omeprazole","Omeprazole Magnesium","Perindopril Arginine","Perindopril Arginine And Amlodipine Tablets","Perindopril Erbumine","Perindopril Erbumine Tablets","Rifampin","Rifampin Capsules","Rifampin For Injection","Sufentanil Citrate","Sulfasalazine","Sulfasalazine Tablets","Vigabatrin","Vigabatrin For Oral Solution","Vigabatrin Tablets","Zolpidem Tartrate","Zolpidem Tartrate Sublingual Tablets"],"City":"Lincoln","Country":"United States","Application Data":"Yes","Activeness Flag":"Unknown","latitude":"40.868969","longitude":"-96.625559"},{"Manufacturer":"Air Liquide Canada Inc","Manufacturing Type":"API MANUFACTURE","Products":["Cyclobenzaprine Hydrochloride","Cyclobenzaprine Hydrochloride Extended-release Capsules","Propranolol Hydrochloride","Propranolol Hydrochloride Extended-release Capsules"],"City":"Fort Lauderdale","Country":"United States","Application Data":"Yes","Activeness Flag":"Unknown","latitude":"26.066225","longitude":"-80.213397"},{"Manufacturer":"MACLEODS PHARMACEUTICALS LIMITED","Manufacturing Type":"MANUFACTURE","Products":["Gemcitabine For Injection","Gemcitabine Hydrochloride","Oxaliplatin","Oxaliplatin For Injection","Oxaliplatin Injection"],"City":"Salt Lake City","Country":"United States","Application Data":"Yes","Activeness Flag":"Unknown","latitude":"40.773488","longitude":"-112.005223"},{"Manufacturer":"Takeda GmbH","Manufacturing Type":"MANUFACTURE","Products":["Itraconazole","Itraconazole Capsules"],"City":"Pittston","Country":"United States","Application Data":"Yes","Activeness Flag":"Unknown","latitude":"41.30572","longitude":"-75.774331"},{"Manufacturer":"Norco, Inc.","Manufacturing Type":"MANUFACTURE","Products":["Omeprazole","Omeprazole And Sodium Bicarbonate Capsules","Omeprazole And Sodium Bicarbonate For Oral Suspension","Omeprazole Magnesium","Sodium Bicarbonate"],"City":"Sioux City","Country":"United States","Application Data":"Yes","Activeness Flag":"Unknown","latitude":"42.488261","longitude":"-96.380248"},{"Manufacturer":"Tulex Pharmaceuticals Inc.","Manufacturing Type":"MANUFACTURE","Products":["Heparin Sodium","Heparin Sodium Injection"],"City":"Minneapolis","Country":"United States","Application Data":"Yes","Activeness Flag":"Unknown","latitude":"45.024984","longitude":"-93.283224"},{"Manufacturer":"Wright & Filippis, Inc.","Manufacturing Type":"MANUFACTURE","Products":["Topiramate","Topiramate Tablets"],"City":"San Diego","Country":"United States","Application Data":"Yes","Activeness Flag":"Unknown","latitude":"32.904194","longitude":"-117.228182"},{"Manufacturer":"GLAND PHARMA LIMITED","Manufacturing Type":"API MANUFACTURE","Products":["Amikacin"],"City":"Saginaw","Country":"United States","Application Data":"Yes","Activeness Flag":"Unknown","latitude":"43.450459","longitude":"-83.877336"},{"Manufacturer":"Amneal Pharmaceuticals LLC","Manufacturing Type":"MANUFACTURE","Products":["Oxygen"],"City":"Ramsey","Country":"United States","Application Data":"Yes","Activeness Flag":"Unknown","latitude":"45.221023","longitude":"-93.422155"},{"Manufacturer":"Carlsbad Technology Inc.","Manufacturing Type":"MANUFACTURE","Products":["Oxygen"],"City":"Elkhart","Country":"United States","Application Data":"Yes","Activeness Flag":"Unknown","latitude":"41.689326","longitude":"-85.943182"},{"Manufacturer":"Campbell, Lachonda","Manufacturing Type":"MANUFACTURE","Products":["Oxygen"],"City":"Springfield","Country":"United States","Application Data":"Yes","Activeness Flag":"Unknown","latitude":"39.829093","longitude":"-89.637929"},{"Manufacturer":"Mountain West Medical Supply L.L.C.","Manufacturing Type":"MANUFACTURE","Products":["Clofarabine","Clofarabine Injection"],"City":"Corpus Christi","Country":"United States","Application Data":"Yes","Activeness Flag":"Unknown","latitude":"27.78583","longitude":"-97.450407"},{"Manufacturer":"Landauer-Metropolitan, Inc.","Manufacturing Type":"MANUFACTURE","Products":["Albuterol","Albuterol Oral Solution","Albuterol Sulfate","Codeine","Codeine Phosphate","Cyproheptadine Hydrochloride","Cyproheptadine Hydrochloride Oral Solution","Cyproheptadine Hydrochloride Tablets","Halobetasol Propionate","Lidocaine","Lidocaine Ointment","Methylphenidate Hydrochloride","Methylphenidate Hydrochloride Oral Solution","Oxycodone Hydrochloride","Oxycodone Hydrochloride Oral Solution","Phenobarbital","Phenobarbital Oral Solution","Phenobarbital Sodium","Phenobarbital Tablets","Promethazine Hydrochloride","Promethazine Hydrochloride And Codeine Phosphate  Oral Solution","Promethazine Hydrochloride Oral Solution","Propylthiouracil","Propylthiouracil Tablets","Triamcinolone","Triamcinolone Acetonide","Triamcinolone Acetonide Lotion"],"City":"Wichita Falls","Country":"United States","Application Data":"Yes","Activeness Flag":"Unknown","latitude":"33.919282","longitude":"-98.49643"},{"Manufacturer":"SKYEPHARMA PRODUCTION SAS","Manufacturing Type":"MANUFACTURE","Products":["Edetate Calcium Disodium","Edetate Calcium Disodium Injection"],"City":"Midland","Country":"United States","Application Data":"Yes","Activeness Flag":"Unknown","latitude":"43.610275","longitude":"-84.210012"},{"Manufacturer":"United Therapeutics Corporation","Manufacturing Type":"API MANUFACTURE","Products":["Nitrogen","Oxygen"],"City":"Stockton","Country":"United States","Application Data":"Yes","Activeness Flag":"Unknown","latitude":"37.944338","longitude":"-121.255203"},{"Manufacturer":"Belcher Pharmaceuticals, LLC","Manufacturing Type":"MANUFACTURE","Products":["Nitrogen"],"City":"Danville","Country":"United States","Application Data":"Yes","Activeness Flag":"Unknown","latitude":"40.139443","longitude":"-87.630227"},{"Manufacturer":"Arcet Equipment Company","Manufacturing Type":"MANUFACTURE","Products":["Oxygen"],"City":"Lake City","Country":"United States","Application Data":"Yes","Activeness Flag":"Unknown","latitude":"30.186614","longitude":"-82.60474"},{"Manufacturer":"EMCURE PHARMACEUTICALS LIMITED","Manufacturing Type":"MANUFACTURE","Products":["Nitrogen","Oxygen"],"City":"La Salle","Country":"United States","Application Data":"Yes","Activeness Flag":"Unknown","latitude":"41.367758","longitude":"-89.103309"},{"Manufacturer":"Praxair Distribution, Inc.","Manufacturing Type":"MANUFACTURE","Products":["Sulfasalazine","Sulfasalazine Delayed-release Tablets","Sulfasalazine Tablets"],"City":"Franklin","Country":"United States","Application Data":"Yes","Activeness Flag":"Unknown","latitude":"39.535547","longitude":"-84.300604"},{"Manufacturer":"Lannett Company, Inc.","Manufacturing Type":"MANUFACTURE","Products":["Dactinomycin","Dactinomycin For Injection","Daunorubicin Hydrochloride","Daunorubicin Hydrochloride For Injection","Daunorubicin Hydrochloride Injection","Telmisartan","Telmisartan Tablets"],"City":"Hollywood","Country":"United States","Application Data":"Yes","Activeness Flag":"Unknown","latitude":"26.011385","longitude":"-80.150217"},{"Manufacturer":"U.P. Superior Enterprises, Inc.","Manufacturing Type":"MANUFACTURE","Products":["Acyclovir","Acyclovir Capsules","Acyclovir Tablets","Amlodipine Besylate","Amlodipine Besylate Tablets","Buspirone Hydrochloride","Buspirone Hydrochloride Tablets","Celecoxib","Celecoxib Capsules","Felodipine","Felodipine Extended-release Tablets","Lisinopril","Lisinopril Tablets","Tacrolimus","Tacrolimus Ointment","Valacyclovir Hydrochloride","Valacyclovir Tablets"],"City":"Macon","Country":"United States","Application Data":"Yes","Activeness Flag":"Unknown","latitude":"32.814063","longitude":"-83.562692"},{"Manufacturer":"Bennett Medical Services LLC","Manufacturing Type":"MANUFACTURE","Products":["Olmesartan Medoxomil","Olmesartan Medoxomil Tablets"],"City":"Greeley","Country":"United States","Application Data":"Yes","Activeness Flag":"Unknown","latitude":"40.407065","longitude":"-104.775033"},{"Manufacturer":"Regents of The University of Michigan","Manufacturing Type":"MANUFACTURE","Products":["Nitrogen","Nitrous Oxide"],"City":"Montgomery","Country":"United States","Application Data":"Yes","Activeness Flag":"Unknown","latitude":"32.384649","longitude":"-86.305378"},{"Manufacturer":"Humco Holding Group, Inc.","Manufacturing Type":"MANUFACTURE","Products":["Oxygen"],"City":"Columbia","Country":"United States","Application Data":"Yes","Activeness Flag":"Unknown","latitude":"33.968593","longitude":"-81.003152"},{"Manufacturer":"O2 Plus Inc","Manufacturing Type":"MANUFACTURE","Products":["Oxygen"],"City":"Irvine","Country":"United States","Application Data":"Yes","Activeness Flag":"Unknown","latitude":"33.687522","longitude":"-117.837368"},{"Manufacturer":"RES-Care, Inc.","Manufacturing Type":"MANUFACTURE","Products":["Amiodarone Hydrochloride","Amiodarone Hydrochloride Tablets","Baclofen","Baclofen Tablets","Bumetanide","Bumetanide Tablets","Chlorpromazine","Chlorpromazine Hydrochloride","Chlorpromazine Hydrochloride Tablets","Cholestyramine For Oral Suspension","Cholestyramine Resin","Clomipramine Hydrochloride","Clomipramine Hydrochloride Capsules","Divalproex Sodium","Divalproex Sodium Delayed-release Tablets","Ethacrynic Acid","Ethacrynic Acid Tablets","Midodrine Hydrochloride","Midodrine Hydrochloride Tablets","Potassium Chloride","Potassium Chloride Extended-release Tablets","Sotalol Hydrochloride","Sotalol Hydrochloride Tablets"],"City":"Richmond","Country":"United States","Application Data":"Yes","Activeness Flag":"Unknown","latitude":"37.504079","longitude":"-77.430643"},{"Manufacturer":"Carl Zeiss Meditec, Inc.","Manufacturing Type":"MANUFACTURE","Products":["Decitabine","Decitabine For Injection","Melphalan","Melphalan For Injection"],"City":"Portland","Country":"United States","Application Data":"Yes","Activeness Flag":"Unknown","latitude":"45.533647","longitude":"-122.59742"},{"Manufacturer":"Cetylite Industries Inc","Manufacturing Type":"MANUFACTURE","Products":["Oxygen"],"City":"North Charleston","Country":"United States","Application Data":"Yes","Activeness Flag":"Unknown","latitude":"32.92415","longitude":"-80.069118"},{"Manufacturer":"ASTRAL STERITECH PRIVATE LIMITED","Manufacturing Type":"API MANUFACTURE","Products":["Aripiprazole","Aripiprazole Tablets","Tolvaptan","Tolvaptan Tablets"],"City":"Clearwater","Country":"United States","Application Data":"Yes","Activeness Flag":"Unknown","latitude":"27.877509","longitude":"-82.7091"},{"Manufacturer":"Airgas Usa, LLC","Manufacturing Type":"MANUFACTURE","Products":["Ipratropium Bromide","Ipratropium Bromide Inhalation Solution"],"City":"Malvern","Country":"United States","Application Data":"Yes","Activeness Flag":"Unknown","latitude":"40.06046","longitude":"-75.544747"},{"Manufacturer":"Airgas Usa, LLC","Manufacturing Type":"MANUFACTURE","Products":["Carboplatin","Carboplatin For Injection","Carboplatin Injection","Cisplatin","Cisplatin Injection","Clofarabine","Clofarabine Injection","Decitabine","Decitabine For Injection","Methotrexate","Methotrexate For Injection","Methotrexate Injection","Oxaliplatin","Oxaliplatin For Injection","Oxaliplatin Injection","Paclitaxel","Paclitaxel Injection"],"City":"Garland","Country":"United States","Application Data":"Yes","Activeness Flag":"Unknown","latitude":"32.888478","longitude":"-96.673531"},{"Manufacturer":"Purity Cylinder Gases, Inc.","Manufacturing Type":"MANUFACTURE","Products":["Ethinyl Estradiol","Isopropyl Alcohol","Isopropyl Rubbing Alcohol","Leuprolide Acetate","Norethindrone","Rubbing Alcohol"],"City":"Vero Beach","Country":"United States","Application Data":"Yes","Activeness Flag":"Unknown","latitude":"27.60732","longitude":"-80.387962"},{"Manufacturer":"SANDOZ INDUSTRIAL PRODUCTS SA","Manufacturing Type":"MANUFACTURE","Products":["Albendazole","Albendazole Tablets","Amlodipine Besylate","Amlodipine Besylate Tablets","Azithromycin","Azithromycin Tablets","Clarithromycin","Clarithromycin Tablets","Donepezil Hydrochloride","Donepezil Hydrochloride Tablets","Gabapentin","Gabapentin Capsules","Gabapentin Tablets","Ibuprofen","Ibuprofen Lysine","Ibuprofen Tablets","Losartan Potassium","Losartan Potassium Tablets","Memantine Hydrochloride","Memantine Hydrochloride Tablets","Metronidazole","Metronidazole Benzoate","Metronidazole Tablets","Modafinil","Modafinil Tablets","Solifenacin Succinate","Solifenacin Succinate Tablets"],"City":"Lancaster","Country":"United States","Application Data":"Yes","Activeness Flag":"Unknown","latitude":"40.055043","longitude":"-76.327817"},{"Manufacturer":"Airgas Usa, LLC","Manufacturing Type":"MANUFACTURE","Products":["Oxygen"],"City":"Elizabethtown","Country":"United States","Application Data":"Yes","Activeness Flag":"Unknown","latitude":"37.682795","longitude":"-85.901949"},{"Manufacturer":"Airgas Usa, LLC","Manufacturing Type":"MANUFACTURE","Products":["Oxygen"],"City":"Raleigh","Country":"United States","Application Data":"Yes","Activeness Flag":"Unknown","latitude":"35.878298","longitude":"-78.59233"},{"Manufacturer":"Airgas Usa, LLC","Manufacturing Type":"MANUFACTURE","Products":["Cephalexin","Cephalexin For Oral Suspension","Cephalexin Hydrochloride"],"City":"Burton","Country":"United States","Application Data":"Yes","Activeness Flag":"Unknown","latitude":"43.026668","longitude":"-83.615222"},{"Manufacturer":"Hf Acquisition Co. LLC","Manufacturing Type":"MANUFACTURE","Products":["Oxygen"],"City":"Claymont","Country":"United States","Application Data":"Yes","Activeness Flag":"Unknown","latitude":"39.810525","longitude":"-75.438917"},{"Manufacturer":"Matheson Tri-Gas, Inc.","Manufacturing Type":"MANUFACTURE","Products":["Oxygen"],"City":"Williston","Country":"United States","Application Data":"Yes","Activeness Flag":"Unknown","latitude":"44.456434","longitude":"-73.12435"},{"Manufacturer":"ROCHE SINGAPORE TECHNICAL OPERATIONS, PTE. LTD.","Manufacturing Type":"MANUFACTURE","Products":["Bedaquiline Fumarate","Bedaquiline Tablets"],"City":"Smyrna","Country":"United States","Application Data":"Yes","Activeness Flag":"Unknown","latitude":"33.896402","longitude":"-84.489458"},{"Manufacturer":"Analgesic Services, Inc.","Manufacturing Type":"MANUFACTURE","Products":["Oxygen"],"City":"Fowler","Country":"United States","Application Data":"Yes","Activeness Flag":"Unknown","latitude":"36.605327","longitude":"-119.649232"},{"Manufacturer":"LABORATOIRE FRANCAIS DU FRACTIONNEMENT ET DES BIOTECHNOLOGIES","Manufacturing Type":"MANUFACTURE","Products":["Nitrogen","Oxygen"],"City":"Albuquerque","Country":"United States","Application Data":"Yes","Activeness Flag":"Unknown","latitude":"35.114935","longitude":"-106.627267"},{"Manufacturer":"UAB TEVA BALTICS","Manufacturing Type":"API MANUFACTURE","Products":["Nitrogen","Oxygen"],"City":"Tucson","Country":"United States","Application Data":"Yes","Activeness Flag":"Unknown","latitude":"32.131468","longitude":"-110.854983"},{"Manufacturer":"Airgas Usa, LLC","Manufacturing Type":"MANUFACTURE","Products":["Oxygen"],"City":"Lansing","Country":"United States","Application Data":"Yes","Activeness Flag":"Unknown","latitude":"42.683211","longitude":"-84.646558"},{"Manufacturer":"Airgas Usa, LLC","Manufacturing Type":"MANUFACTURE","Products":["Oxygen"],"City":"Charleston","Country":"United States","Application Data":"Yes","Activeness Flag":"Unknown","latitude":"38.347517","longitude":"-81.627908"},{"Manufacturer":"ALKERMES PHARMA IRELAND LIMITED","Manufacturing Type":"MANUFACTURE","Products":["Citalopram Hydrobromide","Citalopram Tablets","Clindamycin Hydrochloride","Clindamycin Hydrochloride Capsules","Clindamycin Palmitate Hydrochloride","Doxycycline","Doxycycline Capsules","Doxycycline Hyclate Capsules","Enalapril Maleate","Enalapril Maleate And Hydrochlorothiazide Tablets","Fluocinonide","Fluocinonide Gel","Hydrochlorothiazide"],"City":"Salt Lake City","Country":"United States","Application Data":"Yes","Activeness Flag":"Unknown","latitude":"40.747428","longitude":"-111.938935"},{"Manufacturer":"Major Medical Supply of Longmont LLC","Manufacturing Type":"MANUFACTURE","Products":["Guanfacine Extended-release Tablets","Guanfacine Hydrochloride"],"City":"Clovis","Country":"United States","Application Data":"Yes","Activeness Flag":"Unknown","latitude":"34.39967","longitude":"-103.196248"},{"Manufacturer":"Pti Royston, LLC","Manufacturing Type":"MANUFACTURE","Products":["Abiraterone Acetate","Abiraterone Acetate Tablets","Clobetasol Propionate"],"City":"Coatesville","Country":"United States","Application Data":"Yes","Activeness Flag":"Unknown","latitude":"39.9806","longitude":"-75.8262"},{"Manufacturer":"Airgas Usa, LLC","Manufacturing Type":"MANUFACTURE","Products":["Oxygen"],"City":"Decatur","Country":"United States","Application Data":"Yes","Activeness Flag":"Unknown","latitude":"34.608307","longitude":"-87.037485"},{"Manufacturer":"Fresenius Kabi AB","Manufacturing Type":"MANUFACTURE","Products":["Carbon Dioxide"],"City":"Toledo","Country":"United States","Application Data":"Yes","Activeness Flag":"Unknown","latitude":"41.721429","longitude":"-83.572994"},{"Manufacturer":"Airgas Usa, LLC","Manufacturing Type":"MANUFACTURE","Products":["Oxygen"],"City":"Pekin","Country":"United States","Application Data":"Yes","Activeness Flag":"Unknown","latitude":"40.588713","longitude":"-89.640958"},{"Manufacturer":"American Welding & Gas, Inc.","Manufacturing Type":"MANUFACTURE","Products":["Oxygen"],"City":"Saint Louis","Country":"United States","Application Data":"Yes","Activeness Flag":"Unknown","latitude":"38.688284","longitude":"-90.398599"},{"Manufacturer":"NATCO PHARMA LIMITED","Manufacturing Type":"MANUFACTURE","Products":["Vandetanib","Vandetanib Tablets"],"City":"Fort Walton Beach","Country":"United States","Application Data":"Yes","Activeness Flag":"Unknown","latitude":"30.446565","longitude":"-86.604815"},{"Manufacturer":"Ningbo Meiduo General Products Co., Ltd.","Manufacturing Type":"MANUFACTURE","Products":["Nitrogen","Oxygen"],"City":"Bensalem","Country":"United States","Application Data":"Yes","Activeness Flag":"Unknown","latitude":"40.085156","longitude":"-74.922377"},{"Manufacturer":"Praxair Distribution, Inc.","Manufacturing Type":"MANUFACTURE","Products":["Aflibercept","Aflibercept Injection","Dupilumab"],"City":"Grants","Country":"United States","Application Data":"Yes","Activeness Flag":"Unknown","latitude":"35.154806","longitude":"-107.818311"},{"Manufacturer":"FINORGA","Manufacturing Type":"MANUFACTURE","Products":["Abiraterone Acetate","Abiraterone Acetate Tablets","Albendazole","Albendazole Tablets","Aminocaproic Acid","Aminocaproic Acid Tablets","Asenapine Maleate","Asenapine Sublingual Tablets","Atorvastatin Calcium","Atorvastatin Calcium Tablets","Capecitabine","Capecitabine Tablets","Clobazam","Clobazam Tablets","Clofarabine","Clofarabine Injection","Decitabine","Decitabine For Injection","Deferasirox","Deferasirox Oral Granules","Deferasirox Tablets","Dimethyl Fumarate","Dimethyl Fumarate Delayed-release Capsules","Dofetilide","Droxidopa","Droxidopa Capsules","Eplerenone","Eplerenone Tablets","Erlotinib Hydrochloride","Erlotinib Tablets","Exemestane","Exemestane Tablets","Febuxostat","Febuxostat Tablets","Fosaprepitant Dimeglumine","Fosaprepitant For Injection","Moxifloxacin Hydrochloride","Moxifloxacin Tablets","Oseltamivir Phosphate","Oseltamivir Phosphate Capsules","Paclitaxel","Paclitaxel Injection","Pregabalin","Pregabalin Capsules","Pregabalin Extended-release Tablets","Rosuvastatin Calcium","Rosuvastatin Tablets","Silodosin","Silodosin Capsules","Solifenacin Succinate","Solifenacin Succinate Tablets","Teriflunomide","Teriflunomide Tablets","Thiotepa","Thiotepa For Injection","Toremifene Citrate","Trientine Hydrochloride","Trientine Hydrochloride Capsules"],"City":"West Union","Country":"United States","Application Data":"Yes","Activeness Flag":"Unknown","latitude":"38.785563","longitude":"-83.558181"},{"Manufacturer":"Caraco Pharma, Inc","Manufacturing Type":"MANUFACTURE","Products":["Oxygen"],"City":"Marion","Country":"United States","Application Data":"Yes","Activeness Flag":"Unknown","latitude":"35.834007","longitude":"-82.001403"},{"Manufacturer":"Nesher Pharmaceuticals (usa) LLC","Manufacturing Type":"MANUFACTURE","Products":["Oxygen"],"City":"Santa Ana","Country":"United States","Application Data":"Yes","Activeness Flag":"Unknown","latitude":"33.726871","longitude":"-117.84861"},{"Manufacturer":"MSN LABORATORIES PRIVATE LIMITED","Manufacturing Type":"MANUFACTURE","Products":["Oxygen"],"City":"Medford","Country":"United States","Application Data":"Yes","Activeness Flag":"Unknown","latitude":"42.352321","longitude":"-122.898014"},{"Manufacturer":"Orange Coast Respiratory Care Services, Inc.","Manufacturing Type":"MANUFACTURE","Products":["Bacteriostatic Sodium Chloride Injection","Bupivacaine","Bupivacaine Hydrochloride","Bupivacaine Hydrochloride And Epinephrine Injection","Bupivacaine Hydrochloride Injection","Epinephrine","Furosemide","Furosemide Injection","Heparin Sodium","Heparin Sodium Injection","Labetalol Hydrochloride","Labetalol Hydrochloride Injection","Lidocaine","Lidocaine Hydrochloride","Lidocaine Hydrochloride Injection","Metoprolol Fumarate","Metoprolol Tartrate","Metoprolol Tartrate Injection","Ondansetron","Ondansetron Hydrochloride","Ondansetron Injection","Potassium Acetate","Potassium Acetate Injection","Potassium Chloride","Potassium Chloride For Injection Concentrate","Povidone-iodine","Povidone-iodine Topical Solution","Propofol","Propofol Injectable Emulsion","Sodium Acetate","Sodium Acetate Injection","Sodium Chloride","Sodium Chloride Injection"],"City":"Duarte","Country":"United States","Application Data":"Yes","Activeness Flag":"Unknown","latitude":"34.123419","longitude":"-117.977476"},{"Manufacturer":"PROCOS SPA","Manufacturing Type":"API MANUFACTURE","Products":["Oxygen"],"City":"Cass City","Country":"United States","Application Data":"Yes","Activeness Flag":"Unknown","latitude":"43.57042","longitude":"-83.228342"},{"Manufacturer":"Airgas Usa, LLC","Manufacturing Type":"MANUFACTURE","Products":["Cefazolin","Cefazolin For Injection","Cefazolin In Dextrose Injection","Cefazolin Sodium","Cefoxitin For Injection","Cefoxitin Injection","Cefoxitin Sodium","Ceftriaxone For Injection","Ceftriaxone Sodium"],"City":"Claremont","Country":"United States","Application Data":"Yes","Activeness Flag":"Unknown","latitude":"43.363152","longitude":"-72.316062"},{"Manufacturer":"SwissCo Services AG","Manufacturing Type":"MANUFACTURE","Products":["Nitrogen","Oxygen"],"City":"Nashville","Country":"United States","Application Data":"Yes","Activeness Flag":"Unknown","latitude":"36.151352","longitude":"-86.77253"},{"Manufacturer":"Clovis Equipment & Supply Company Inc","Manufacturing Type":"API MANUFACTURE","Products":["Oxygen"],"City":"Kent","Country":"United States","Application Data":"Yes","Activeness Flag":"Unknown","latitude":"47.402645","longitude":"-122.232329"},{"Manufacturer":"Airgas Usa, LLC","Manufacturing Type":"MANUFACTURE","Products":["Carbon Dioxide","Helium","Nitrogen","Nitrous Oxide","Oxygen"],"City":"Minneapolis","Country":"United States","Application Data":"Yes","Activeness Flag":"Unknown","latitude":"44.969345","longitude":"-93.261104"},{"Manufacturer":"Martin Ekwealor Pharmaceuticals, Inc.","Manufacturing Type":"MANUFACTURE","Products":["Pegloticase","Pegloticase Injection"],"City":"Cody","Country":"United States","Application Data":"Yes","Activeness Flag":"Unknown","latitude":"44.526061","longitude":"-109.073724"},{"Manufacturer":"H & C Oxygen, Inc.","Manufacturing Type":"MANUFACTURE","Products":["Dexmethylphenidate Hydrochloride","Dexmethylphenidate Hydrochloride Extended-release Capsules"],"City":"Glasgow","Country":"United States","Application Data":"Yes","Activeness Flag":"Unknown","latitude":"48.189492","longitude":"-106.636322"},{"Manufacturer":"Navinta LLC","Manufacturing Type":"MANUFACTURE","Products":["Oxygen"],"City":"Plainville","Country":"United States","Application Data":"Yes","Activeness Flag":"Unknown","latitude":"42.0205","longitude":"-71.315229"},{"Manufacturer":"Industrial Welding & Tool Supply, Ltd.","Manufacturing Type":"MANUFACTURE","Products":["Clarithromycin","Clarithromycin Tablets"],"City":"Duluth","Country":"United States","Application Data":"Yes","Activeness Flag":"Unknown","latitude":"46.751188","longitude":"-92.145915"},{"Manufacturer":"Medical Products Laboratories, Inc.","Manufacturing Type":"API MANUFACTURE","Products":["Budesonide","Budesonide Delayed-release Capsules","Celecoxib","Celecoxib Capsules","Clorazepate Dipotassium","Clorazepate Dipotassium Tablets","Diazepam","Diazepam Tablets","Flurazepam Hydrochloride","Flurazepam Hydrochloride Capsules","Ketoprofen","Ketoprofen Capsules","Ketoprofen Extended-release Capsules","Paroxetine Extended-release Tablets","Paroxetine Hydrochloride","Potassium Chloride","Potassium Chloride Extended-release Tablets","Tramadol Hydrochloride","Tramadol Hydrochloride Tablets"],"City":"Palm Desert","Country":"United States","Application Data":"Yes","Activeness Flag":"Unknown","latitude":"33.721559","longitude":"-116.368098"},{"Manufacturer":"TWI PHARMACEUTICALS, INC. ZHONGLI PLANT BUILDING II","Manufacturing Type":"API MANUFACTURE","Products":["Carbon Dioxide","Helium","Nitrogen","Nitrous Oxide","Oxygen"],"City":"San Marcos","Country":"United States","Application Data":"Yes","Activeness Flag":"Unknown","latitude":"33.144841","longitude":"-117.196806"},{"Manufacturer":"Fox Welding Supply, Inc.","Manufacturing Type":"MANUFACTURE","Products":["Azithromycin","Azithromycin For Injection","Cisatracurium Besylate","Cisatracurium Besylate Injection","Cyanocobalamin","Cyanocobalamin Injection","Dexamethasone","Dexamethasone Sodium Phosphate Injection","Dexrazoxane","Enoxaparin Sodium","Enoxaparin Sodium Injection","Ertapenem For Injection","Ertapenem Sodium","Ethacrynate Sodium For Injection","Fosphenytoin Sodium","Fosphenytoin Sodium Injection","Furosemide","Furosemide Injection","Glatiramer Acetate","Glycopyrrolate","Glycopyrrolate Injection","Ibutilide Fumarate","Ketorolac Tromethamine","Ketorolac Tromethamine Injection","Labetalol Hydrochloride","Labetalol Hydrochloride Injection","Levetiracetam","Levetiracetam Injection","Levoleucovorin Calcium","Meropenem","Meropenem For Injection","Methocarbamol","Methocarbamol Injection","Metoprolol Fumarate","Metoprolol Tartrate","Metoprolol Tartrate Injection","Midazolam","Midazolam Hydrochloride","Midazolam Injection","Moxifloxacin Hydrochloride","Moxifloxacin Ophthalmic Solution","Neostigmine Bromide","Neostigmine Methylsulfate","Neostigmine Methylsulfate Injection","Norepinephrine Bitartrate","Norepinephrine Bitartrate Injection","Ondansetron","Ondansetron Hydrochloride","Ondansetron Injection","Phenylephrine Hydrochloride","Phenylephrine Hydrochloride Injection","Potassium Benzoate","Rocuronium Bromide","Sodium Benzoate","Sumatriptan","Sumatriptan Injection","Sumatriptan Succinate","Tranexamic Acid","Tranexamic Acid Injection","Vancomycin","Vancomycin Hydrochloride","Vancomycin Hydrochloride For Injection","Vancomycin Injection","Verapamil Hydrochloride","Verapamil Hydrochloride Injection","Ziprasidone Hydrochloride","Zoledronic Acid","Zoledronic Acid Injection"],"City":"Piscataway","Country":"United States","Application Data":"Yes","Activeness Flag":"Unknown","latitude":"40.552197","longitude":"-74.475127"},{"Manufacturer":"Haun Welding Supply, Inc.","Manufacturing Type":"MANUFACTURE","Products":["Simvastatin","Simvastatin Tablets"],"City":"Barceloneta","Country":"United States","Application Data":"Yes","Activeness Flag":"Unknown","latitude":"18.4399","longitude":"-66.555"},{"Manufacturer":"Midwest Medical Service, Inc.","Manufacturing Type":"MANUFACTURE","Products":["Nitrogen","Oxygen"],"City":"Barceloneta","Country":"United States","Application Data":"Yes","Activeness Flag":"Unknown","latitude":"18.4399","longitude":"-66.555"},{"Manufacturer":"Air Source Industries","Manufacturing Type":"MANUFACTURE","Products":["Colistimethate For Injection","Colistimethate Sodium","Colistin Sulfate","Dexamethasone","Neomycin And Polymyxin B Sulfates And Dexamethasone Ophthalmic Suspension","Vancomycin","Vancomycin Hydrochloride","Vancomycin Hydrochloride For Injection","Vancomycin Injection"],"City":"North Kansas City","Country":"United States","Application Data":"Yes","Activeness Flag":"Unknown","latitude":"39.145334","longitude":"-94.581852"},{"Manufacturer":"West-Ward Columbus Inc","Manufacturing Type":"MANUFACTURE","Products":["Nitrogen","Oxygen"],"City":"Lansing","Country":"United States","Application Data":"Yes","Activeness Flag":"Unknown","latitude":"42.772767","longitude":"-84.579859"},{"Manufacturer":"Norco, Inc.","Manufacturing Type":"MANUFACTURE","Products":["Bacteriostatic Sodium Chloride Injection","Sodium Chloride","Sodium Chloride Injection"],"City":"Tulsa","Country":"United States","Application Data":"Yes","Activeness Flag":"Unknown","latitude":"36.046543","longitude":"-96.086952"},{"Manufacturer":"Cache Valley Oxygen, Inc.","Manufacturing Type":"MANUFACTURE","Products":["Fosphenytoin Sodium","Fosphenytoin Sodium Injection"],"City":"Athens","Country":"United States","Application Data":"Yes","Activeness Flag":"Unknown","latitude":"32.170784","longitude":"-95.843576"},{"Manufacturer":"PHARMAZELL (INDIA) PRIVATE LIMITED","Manufacturing Type":"MANUFACTURE","Products":["Carbon Dioxide","Helium","Nitrogen","Nitrous Oxide","Oxygen"],"City":"Hauppauge","Country":"United States","Application Data":"Yes","Activeness Flag":"Unknown","latitude":"40.81071","longitude":"-73.242454"},{"Manufacturer":"Texoma Medical Services, Inc","Manufacturing Type":"MANUFACTURE","Products":["Doxorubicin Hydrochloride","Doxorubicin Hydrochloride For Injection","Doxorubicin Hydrochloride Injection","Doxorubicin Hydrochloride Pegylated Liposome Injection","Epirubicin Hydrochloride","Epirubicin Hydrochloride Injection","Idarubicin Hydrochloride","Idarubicin Hydrochloride Injection","Irinotecan Hydrochloride","Irinotecan Hydrochloride Injection"],"City":"Philadelphia","Country":"United States","Application Data":"Yes","Activeness Flag":"Unknown","latitude":"40.063248","longitude":"-75.072925"},{"Manufacturer":"Airgas Usa, LLC","Manufacturing Type":"API MANUFACTURE","Products":["Oxygen"],"City":"Artesia","Country":"United States","Application Data":"Yes","Activeness Flag":"Unknown","latitude":"32.843608","longitude":"-104.397797"},{"Manufacturer":"Dallas Life Support Systems, Incorporated","Manufacturing Type":"MANUFACTURE","Products":["Oxygen"],"City":"Tulsa","Country":"United States","Application Data":"Yes","Activeness Flag":"Unknown","latitude":"36.135942","longitude":"-96.007025"},{"Manufacturer":"GLAXOSMITHKLINE SPA","Manufacturing Type":"MANUFACTURE","Products":["Nitrogen","Nitrous Oxide","Oxygen"],"City":"Grand Prairie","Country":"United States","Application Data":"Yes","Activeness Flag":"Unknown","latitude":"32.7855","longitude":"-97.055519"},{"Manufacturer":"ADHEXPHARMA","Manufacturing Type":"MANUFACTURE","Products":["Ethinyl Estradiol","Isopropyl Alcohol","Isopropyl Rubbing Alcohol","Leuprolide Acetate","Norethindrone","Rubbing Alcohol"],"City":"Naples","Country":"United States","Application Data":"Yes","Activeness Flag":"Unknown","latitude":"26.216905","longitude":"-81.777452"},{"Manufacturer":"Hikma Injectables USA Inc.","Manufacturing Type":"MANUFACTURE","Products":["Acetaminophen","Amphetamine Mixed Salts Extended-release Capsules","Amphetamine Sulfate","Butalbital","Butalbital, Acetaminophen, And Caffeine Tablets","Caffeine","Dextroamphetamine Sulfate","Dextroamphetamine Sulfate Tablets","Morphine Sulfate","Morphine Sulfate Extended-release Tablets","Nystatin","Nystatin Topical Powder","Oseltamivir Phosphate","Oseltamivir Phosphate Capsules","Oseltamivir Phosphate For Oral Suspension","Oxycodone And Acetaminophen Tablets","Oxycodone Hydrochloride","Oxycodone Hydrochloride Tablets","Potassium Chloride","Potassium Chloride Extended-release Capsules"],"City":"Greenville","Country":"United States","Application Data":"Yes","Activeness Flag":"Unknown","latitude":"35.658507","longitude":"-77.357521"},{"Manufacturer":"Ascension Via Christi Home Medical Wichita, LLC","Manufacturing Type":"MANUFACTURE","Products":["Carbon Dioxide","Helium","Nitrogen","Nitrous Oxide","Oxygen"],"City":"Bismarck","Country":"United States","Application Data":"Yes","Activeness Flag":"Unknown","latitude":"46.796924","longitude":"-100.749781"},{"Manufacturer":"Reliant Holdings, Ltd.","Manufacturing Type":"API MANUFACTURE","Products":["Nicardipine Hydrochloride","Nicardipine Hydrochloride In Dextrose Injection","Nicardipine Hydrochloride In Sodium Chloride Injection","Nicardipine Hydrochloride Injection"],"City":"La Porte","Country":"United States","Application Data":"Yes","Activeness Flag":"Unknown","latitude":"29.702418","longitude":"-95.051829"},{"Manufacturer":"Alza Corporation","Manufacturing Type":"MANUFACTURE","Products":["Nitrogen","Oxygen"],"City":"Casper","Country":"United States","Application Data":"Yes","Activeness Flag":"Unknown","latitude":"42.851945","longitude":"-106.302568"},{"Manufacturer":"Jenco Medical and Mobility, Inc.","Manufacturing Type":"API MANUFACTURE","Products":["Oxygen"],"City":"Plymouth","Country":"United States","Application Data":"Yes","Activeness Flag":"Unknown","latitude":"41.354663","longitude":"-86.361708"},{"Manufacturer":"Airgas Usa, LLC","Manufacturing Type":"API MANUFACTURE","Products":["Bacteriostatic Sodium Chloride Injection","Calcium Chloride","Dextrose","Dextrose Injection","Magnesium Chloride","Potassium Chloride","Sodium Chloride","Sodium Chloride Injection","Sodium Chloride Irrigation"],"City":"Birmingham","Country":"United States","Application Data":"Yes","Activeness Flag":"Unknown","latitude":"33.4117","longitude":"-86.9061"},{"Manufacturer":"Matheson Tri-Gas, Inc.","Manufacturing Type":"MANUFACTURE","Products":["Oxygen"],"City":"Newtown","Country":"United States","Application Data":"Yes","Activeness Flag":"Unknown","latitude":"40.229325","longitude":"-74.91284"},{"Manufacturer":"NORTH A N","Manufacturing Type":"MANUFACTURE","Products":["Dinoprostone","Hydrochlorothiazide","Irbesartan","Irbesartan And Hydrochlorothiazide Tablets","Irbesartan Tablets"],"City":"Sacramento","Country":"United States","Application Data":"Yes","Activeness Flag":"Unknown","latitude":"38.65362","longitude":"-121.487794"},{"Manufacturer":"Airgas Usa, LLC","Manufacturing Type":"MANUFACTURE","Products":["Nitrogen","Oxygen"],"City":"Baltimore","Country":"United States","Application Data":"Yes","Activeness Flag":"Unknown","latitude":"39.287388","longitude":"-76.612101"},{"Manufacturer":"Welsco, Inc.","Manufacturing Type":"MANUFACTURE","Products":["Insulin Aspart"],"City":"San Antonio","Country":"United States","Application Data":"Yes","Activeness Flag":"Unknown","latitude":"29.505506","longitude":"-98.585457"},{"Manufacturer":"Patheon Inc","Manufacturing Type":"MANUFACTURE","Products":["Carbon Dioxide"],"City":"San Diego","Country":"United States","Application Data":"Yes","Activeness Flag":"Unknown","latitude":"32.901651","longitude":"-117.18477"},{"Manufacturer":"Iws Gas and Supply of Texas, Ltd","Manufacturing Type":"MANUFACTURE","Products":["Oxygen"],"City":"Athens","Country":"United States","Application Data":"Yes","Activeness Flag":"Unknown","latitude":"33.981287","longitude":"-83.33102"},{"Manufacturer":"Teva Parenteral Medicines, Inc.","Manufacturing Type":"MANUFACTURE","Products":["Oxygen"],"City":"West Caldwell","Country":"United States","Application Data":"Yes","Activeness Flag":"Unknown","latitude":"40.866962","longitude":"-74.291657"},{"Manufacturer":"Wright & Filippis, Inc.","Manufacturing Type":"API MANUFACTURE","Products":["Gabapentin","Gabapentin Capsules","Gabapentin Tablets","Hydrochlorothiazide","Hydrochlorothiazide Capsules","Nabumetone","Nabumetone Tablets","Omeprazole","Omeprazole And Sodium Bicarbonate Capsules","Omeprazole Magnesium","Sodium Bicarbonate"],"City":"Central Islip","Country":"United States","Application Data":"Yes","Activeness Flag":"Unknown","latitude":"40.770338","longitude":"-73.200329"},{"Manufacturer":"Verio Healthcare, Inc.","Manufacturing Type":"MANUFACTURE","Products":["Safinamide Mesylate","Safinamide Tablets"],"City":"Greenville","Country":"United States","Application Data":"Yes","Activeness Flag":"Unknown","latitude":"34.773908","longitude":"-82.33404"},{"Manufacturer":"Teva Pharmaceuticals Usa, Inc.","Manufacturing Type":"API MANUFACTURE","Products":["Epoprostenol For Injection"],"City":"Broadview","Country":"United States","Application Data":"Yes","Activeness Flag":"Unknown","latitude":"41.867323","longitude":"-87.863052"},{"Manufacturer":"Mercy Medical Supply Inc","Manufacturing Type":"MANUFACTURE","Products":["Oxygen"],"City":"Fremont","Country":"United States","Application Data":"Yes","Activeness Flag":"Unknown","latitude":"41.349324","longitude":"-83.143636"},{"Manufacturer":"Ucb","Manufacturing Type":"API MANUFACTURE","Products":["Hydroquinone"],"City":"Longview","Country":"United States","Application Data":"Yes","Activeness Flag":"Unknown","latitude":"32.456215","longitude":"-94.741833"},{"Manufacturer":"Xcelience, LLC","Manufacturing Type":"MANUFACTURE","Products":["Capsaicin","Lidocaine","Menthol"],"City":"West Palm Beach","Country":"United States","Application Data":"Yes","Activeness Flag":"Unknown","latitude":"26.713286","longitude":"-80.109235"},{"Manufacturer":"Icu Medical, Inc.","Manufacturing Type":"MANUFACTURE","Products":["Nitrogen","Oxygen"],"City":"Wilkes Barre","Country":"United States","Application Data":"Yes","Activeness Flag":"Unknown","latitude":"41.241058","longitude":"-75.883836"},{"Manufacturer":"Praxair Distribution, Inc.","Manufacturing Type":"MANUFACTURE","Products":["Nitrogen","Oxygen"],"City":"New Cumberland","Country":"United States","Application Data":"Yes","Activeness Flag":"Unknown","latitude":"40.209991","longitude":"-76.886162"},{"Manufacturer":"Xellia Pharmaceuticals ApS","Manufacturing Type":"MANUFACTURE","Products":["Doxycycline","Doxycycline Hyclate","Doxycycline Hyclate Tablets","Doxycycline Tablets","Methylergonovine Maleate","Methylergonovine Maleate Tablets"],"City":"Cranbury","Country":"United States","Application Data":"Yes","Activeness Flag":"Unknown","latitude":"40.331727","longitude":"-74.497184"},{"Manufacturer":"APOTHECON PHARMACEUTICALS PRIVATE LIMITED","Manufacturing Type":"MANUFACTURE","Products":["Bupropion Hydrobromide Extended-release Tablets","Bupropion Hydrochloride","Bupropion Hydrochloride Extended-release Tablets"],"City":"Spartanburg","Country":"United States","Application Data":"Yes","Activeness Flag":"Unknown","latitude":"34.967724","longitude":"-82.022191"},{"Manufacturer":"DR REDDY'S LABORATORIES LIMITED","Manufacturing Type":"API MANUFACTURE","Products":["Oxygen"],"City":"Ewing","Country":"United States","Application Data":"Yes","Activeness Flag":"Unknown","latitude":"40.257438","longitude":"-74.710164"},{"Manufacturer":"Ineos Pigments Asu LLC","Manufacturing Type":"MANUFACTURE","Products":["Carbon Dioxide","Helium","Nitrous Oxide","Oxygen"],"City":"Convent","Country":"United States","Application Data":"Yes","Activeness Flag":"Unknown","latitude":"30.12105","longitude":"-90.869185"},{"Manufacturer":"Unichem Pharmaceuticals (usa), Inc.","Manufacturing Type":"MANUFACTURE","Products":["Nitrogen","Oxygen"],"City":"Greenfield","Country":"United States","Application Data":"Yes","Activeness Flag":"Unknown","latitude":"42.641201","longitude":"-72.568044"},{"Manufacturer":"Sciegen Pharmaceuticals, Inc.","Manufacturing Type":"MANUFACTURE","Products":["Esomeprazole Magnesium","Esomeprazole Sodium","Esomeprazole Sodium For Injection","Succinylcholine Chloride","Succinylcholine Chloride Injection"],"City":"Danbury","Country":"United States","Application Data":"Yes","Activeness Flag":"Unknown","latitude":"41.389764","longitude":"-73.501203"},{"Manufacturer":"Rhodes Technologies Inc.","Manufacturing Type":"MANUFACTURE","Products":["Cisplatin","Cisplatin For Injection","Lomustine","Lomustine Capsules","Mitotane","Mitotane Tablets"],"City":"Plainsboro","Country":"United States","Application Data":"Yes","Activeness Flag":"Unknown","latitude":"40.335382","longitude":"-74.593536"},{"Manufacturer":"MIDC INDUSTRIES ASSOCIATION","Manufacturing Type":"MANUFACTURE","Products":["Oxygen"],"City":"Tacoma","Country":"United States","Application Data":"Yes","Activeness Flag":"Unknown","latitude":"47.239149","longitude":"-122.39399"},{"Manufacturer":"Martin Ekwealor Pharmaceu","Manufacturing Type":"MANUFACTURE","Products":["Enoxaparin Sodium","Enoxaparin Sodium Injection","Fulvestrant","Fulvestrant Injection"],"City":"Eugene","Country":"United States","Application Data":"Yes","Activeness Flag":"Unknown","latitude":"44.019019","longitude":"-123.079875"},{"Manufacturer":"Mylan Pharmaceuticals Inc.","Manufacturing Type":"API MANUFACTURE","Products":["Oxygen"],"City":"Flemingsburg","Country":"United States","Application Data":"Yes","Activeness Flag":"Unknown","latitude":"38.4216","longitude":"-83.7523"},{"Manufacturer":"Genvion Corporation","Manufacturing Type":"MANUFACTURE","Products":["Nitrogen"],"City":"Cheyenne","Country":"United States","Application Data":"Yes","Activeness Flag":"Unknown","latitude":"41.12645","longitude":"-104.754942"},{"Manufacturer":"Sola Pharmaceuticals, LLC","Manufacturing Type":"MANUFACTURE","Products":["Nitrogen","Oxygen"],"City":"Midland","Country":"United States","Application Data":"Yes","Activeness Flag":"Unknown","latitude":"35.219943","longitude":"-80.519347"},{"Manufacturer":"Gt Industries Inc","Manufacturing Type":"API MANUFACTURE","Products":["Oxygen"],"City":"Seattle","Country":"United States","Application Data":"Yes","Activeness Flag":"Unknown","latitude":"47.657285","longitude":"-122.342405"},{"Manufacturer":"SGS INSTITUT FRESENIUS GmbH","Manufacturing Type":"MANUFACTURE","Products":["Celecoxib","Celecoxib Capsules","Clarithromycin","Clarithromycin Extended-release Tablets","Fluoxetine Tablets","Fluvastatin Extended-release Tablets","Fluvastatin Sodium","Hydrochlorothiazide","Icatibant Acetate","Icatibant Injection","Lansoprazole","Lansoprazole Delayed-release Capsules","Losartan Potassium","Losartan Potassium And Hydrochlorothiazide Tablets","Mesalamine","Mesalamine Delayed-release Capsules","Nitrofurantoin","Nitrofurantoin Capsules","Palonosetron Hydrochloride","Palonosetron Injection","Pregabalin","Pregabalin Capsules","Sulfamethoxazole","Sulfamethoxazole And Trimethoprim Injection","Tadalafil","Tadalafil Tablets","Tamoxifen Citrate","Tamoxifen Citrate Tablets","Trimethoprim","Trimethoprim Sulfate"],"City":"State College","Country":"United States","Application Data":"Yes","Activeness Flag":"Unknown","latitude":"40.844399","longitude":"-77.794685"},{"Manufacturer":"Airgas Usa, LLC","Manufacturing Type":"MANUFACTURE","Products":["Carbon Dioxide","Nitrogen","Oxygen"],"City":"Amityville","Country":"United States","Application Data":"Yes","Activeness Flag":"Unknown","latitude":"40.681999","longitude":"-73.409271"},{"Manufacturer":"Astrazeneca Uk Limited","Manufacturing Type":"MANUFACTURE","Products":["Oxygen"],"City":"Irving","Country":"United States","Application Data":"Yes","Activeness Flag":"Unknown","latitude":"32.885117","longitude":"-96.971009"},{"Manufacturer":"Corden Pharma Boulder, Inc.","Manufacturing Type":"MANUFACTURE","Products":["Solriamfetol Hydrochloride","Solriamfetol Tablets"],"City":"Fargo","Country":"United States","Application Data":"Yes","Activeness Flag":"Unknown","latitude":"46.882263","longitude":"-96.810663"},{"Manufacturer":"Craig's Drug Store, Inc.","Manufacturing Type":"MANUFACTURE","Products":["Carbon Dioxide","Helium","Nitrogen","Nitrous Oxide","Oxygen"],"City":"Twin Falls","Country":"United States","Application Data":"Yes","Activeness Flag":"Unknown","latitude":"42.590483","longitude":"-114.48607"},{"Manufacturer":"Bristol-Myers Squibb Company","Manufacturing Type":"MANUFACTURE","Products":["Naproxen","Naproxen Sodium Tablets","Naproxen Tablets"],"City":"Princeton","Country":"United States","Application Data":"Yes","Activeness Flag":"Unknown","latitude":"40.302526","longitude":"-74.674551"},{"Manufacturer":"Praxair Distribution, Inc.","Manufacturing Type":"MANUFACTURE","Products":["Nitrogen","Oxygen"],"City":"Somerset","Country":"United States","Application Data":"Yes","Activeness Flag":"Unknown","latitude":"40.533439","longitude":"-74.520385"},{"Manufacturer":"Praxair Distribution, Inc.","Manufacturing Type":"MANUFACTURE","Products":["Polyethylene Glycol 3350","Potassium Chloride","Sodium Bicarbonate","Sodium Chloride","Sodium Sulfate"],"City":"Rancho Cucamonga","Country":"United States","Application Data":"Yes","Activeness Flag":"Unknown","latitude":"34.094527","longitude":"-117.572969"},{"Manufacturer":"Life Supply Corp.","Manufacturing Type":"MANUFACTURE","Products":["Carbon Dioxide"],"City":"Saint Louis","Country":"United States","Application Data":"Yes","Activeness Flag":"Unknown","latitude":"38.528677","longitude":"-90.329917"},{"Manufacturer":"Oxarc, Inc.","Manufacturing Type":"MANUFACTURE","Products":["Carbon Dioxide","Nitrogen","Nitrous Oxide","Oxygen"],"City":"Phoenix","Country":"United States","Application Data":"Yes","Activeness Flag":"Unknown","latitude":"33.445194","longitude":"-112.155988"},{"Manufacturer":"Cedar Mountain Medical Inc","Manufacturing Type":"MANUFACTURE","Products":["Oxygen"],"City":"Miami","Country":"United States","Application Data":"Yes","Activeness Flag":"Unknown","latitude":"25.646991","longitude":"-80.39426"},{"Manufacturer":"ROQUETTE FRERES","Manufacturing Type":"MANUFACTURE","Products":["Nitrogen"],"City":"Winston Salem","Country":"United States","Application Data":"Yes","Activeness Flag":"Unknown","latitude":"36.090176","longitude":"-80.286628"},{"Manufacturer":"Home Care Specialists Inc.","Manufacturing Type":"MANUFACTURE","Products":["Fludarabine Phosphate","Fludarabine Phosphate For Injection","Fludarabine Phosphate Injection"],"City":"Keokuk","Country":"United States","Application Data":"Yes","Activeness Flag":"Unknown","latitude":"40.407951","longitude":"-91.38868"},{"Manufacturer":"Airgas Usa, LLC","Manufacturing Type":"MANUFACTURE","Products":["Bupivacaine","Granisetron","Granisetron Hydrochloride","Granisetron Hydrochloride Injection","Meloxicam"],"City":"Waverly","Country":"United States","Application Data":"Yes","Activeness Flag":"Unknown","latitude":"40.907219","longitude":"-96.532345"},{"Manufacturer":"MSN PHARMACHEM PRIVATE LIMITED","Manufacturing Type":"MANUFACTURE","Products":["Oxygen"],"City":"Great Neck","Country":"United States","Application Data":"Yes","Activeness Flag":"Unknown","latitude":"40.780551","longitude":"-73.708509"},{"Manufacturer":"New Bedford Welding Supply, Inc.","Manufacturing Type":"MANUFACTURE","Products":["Entecavir","Entecavir Tablets","Exemestane","Exemestane Tablets","Melphalan","Melphalan Tablets","Temozolomide","Temozolomide Capsules","Toremifene Citrate"],"City":"Warner Robins","Country":"United States","Application Data":"Yes","Activeness Flag":"Unknown","latitude":"32.589802","longitude":"-83.599799"},{"Manufacturer":"Fermion Oy","Manufacturing Type":"MANUFACTURE","Products":["Capecitabine","Capecitabine Tablets","Dimethyl Fumarate","Dimethyl Fumarate Delayed-release Capsules","Ranolazine","Sildenafil Citrate","Sildenafil Tablets"],"City":"Omaha","Country":"United States","Application Data":"Yes","Activeness Flag":"Unknown","latitude":"41.218308","longitude":"-96.071748"},{"Manufacturer":"Perrigo New York, Inc.","Manufacturing Type":"MANUFACTURE","Products":["Nitrogen","Oxygen"],"City":"Memphis","Country":"United States","Application Data":"Yes","Activeness Flag":"Unknown","latitude":"35.049998","longitude":"-90.153193"},{"Manufacturer":"INDOCO REMEDIES LIMITED","Manufacturing Type":"MANUFACTURE","Products":["Oxygen"],"City":"Greensburg","Country":"United States","Application Data":"Yes","Activeness Flag":"Unknown","latitude":"40.290088","longitude":"-79.566597"},{"Manufacturer":"Praxair Distribution, Inc.","Manufacturing Type":"MANUFACTURE","Products":["Lamivudine","Lamivudine And Zidovudine Tablets","Zidovudine"],"City":"Dalton","Country":"United States","Application Data":"Yes","Activeness Flag":"Unknown","latitude":"34.797693","longitude":"-84.976097"},{"Manufacturer":"Florida Oxygen & Transfilling Inc.","Manufacturing Type":"MANUFACTURE","Products":["Asenapine Maleate"],"City":"Brooklyn","Country":"United States","Application Data":"Yes","Activeness Flag":"Unknown","latitude":"40.660323","longitude":"-74.001098"},{"Manufacturer":"Atlanta Medical Gas","Manufacturing Type":"MANUFACTURE","Products":["Aripiprazole","Aripiprazole Tablets","Aztreonam","Aztreonam For Injection","Aztreonam Injection","Ipilimumab","Ipilimumab Injection","Nivolumab Injection"],"City":"Southampton","Country":"United States","Application Data":"Yes","Activeness Flag":"Unknown","latitude":"40.887154","longitude":"-72.388953"},{"Manufacturer":"AUROBINDO PHARMA LIMITED","Manufacturing Type":"MANUFACTURE","Products":["Brexpiprazole","Tolvaptan","Tolvaptan Tablets"],"City":"Kansas City","Country":"United States","Application Data":"Yes","Activeness Flag":"Unknown","latitude":"39.111893","longitude":"-94.503815"},{"Manufacturer":"Axia Medical Solutions LLC","Manufacturing Type":"MANUFACTURE","Products":["Nitrogen"],"City":"Glasgow","Country":"United States","Application Data":"Yes","Activeness Flag":"Unknown","latitude":"37.017941","longitude":"-85.959682"},{"Manufacturer":"Airgas Usa, LLC","Manufacturing Type":"MANUFACTURE","Products":["Aminocaproic Acid","Aminocaproic Acid Oral Solution","Amphetamine Sulfate","Amphetamine Sulfate Tablets","Clobazam","Clobazam Oral Suspension","Enalapril Maleate","Enalapril Maleate For Oral Solution","Rufinamide","Rufinamide Oral Suspension"],"City":"Columbia","Country":"United States","Application Data":"Yes","Activeness Flag":"Unknown","latitude":"34.0689","longitude":"-81.02"},{"Manufacturer":"PFIZER IRELAND PHARMACEUTICALS","Manufacturing Type":"MANUFACTURE","Products":["Oxygen"],"City":"Tampa","Country":"United States","Application Data":"Yes","Activeness Flag":"Unknown","latitude":"28.016787","longitude":"-82.53388"},{"Manufacturer":"Merck Sharp & Dohme Corp.","Manufacturing Type":"MANUFACTURE","Products":["Levothyroxine Sodium","Levothyroxine Sodium Tablets"],"City":"High Point","Country":"United States","Application Data":"Yes","Activeness Flag":"Unknown","latitude":"36.052176","longitude":"-79.96076"},{"Manufacturer":"Patheon Pharmaceuticals Inc.","Manufacturing Type":"MANUFACTURE","Products":["Oxygen"],"City":"Pittsburgh","Country":"United States","Application Data":"Yes","Activeness Flag":"Unknown","latitude":"40.44376","longitude":"-80.086384"},{"Manufacturer":"Humanwell Puracap Pharmaceuticals (Wuhan) Co., Ltd.","Manufacturing Type":"MANUFACTURE","Products":["Nitrogen","Oxygen"],"City":"Waukesha","Country":"United States","Application Data":"Yes","Activeness Flag":"Unknown","latitude":"43.030589","longitude":"-88.22593"},{"Manufacturer":"Piramal Critical Care, Inc.","Manufacturing Type":"MANUFACTURE","Products":["Brimonidine Tartrate","Brimonidine Tartrate Ophthalmic Solution"],"City":"Missoula","Country":"United States","Application Data":"Yes","Activeness Flag":"Unknown","latitude":"46.89068","longitude":"-114.026728"},{"Manufacturer":"G&W NC Laboratories, LLC","Manufacturing Type":"MANUFACTURE","Products":["Lindane","Lindane Lotion"],"City":"Rockville","Country":"United States","Application Data":"Yes","Activeness Flag":"Unknown","latitude":"39.103359","longitude":"-77.211152"},{"Manufacturer":"Shenzhen Techdow Pharmaceutical Co., Ltd.","Manufacturing Type":"MANUFACTURE","Products":["Acetaminophen","Atovaquone","Atovaquone Oral Suspension","Benzphetamine Hydrochloride","Benzphetamine Hydrochloride Tablets","Betaxolol Hydrochloride","Betaxolol Tablets","Butalbital","Butalbital, Acetaminophen, And Caffeine Tablets","Caffeine","Cyclobenzaprine Hydrochloride","Cyclobenzaprine Hydrochloride Tablets","Desmopressin Acetate","Dexmethylphenidate Hydrochloride","Dexmethylphenidate Hydrochloride Tablets","Dextroamphetamine Sulfate","Dextroamphetamine Sulfate Tablets","Diethylpropion Hydrochloride","Diethylpropion Hydrochloride Tablets","Homatropine Methylbromide","Hydrocodone Bitartrate","Hydrocodone Bitartrate And Acetaminophen Tablets","Hydrocodone Bitartrate And Homatropine Methylbromide Tablets","Hydroxyzine Hydrochloride","Hydroxyzine Hydrochloride Tablets","Indomethacin","Indomethacin Extended-release Capsules","Indomethacin Sodium","Leflunomide","Leflunomide Tablets","Methylphenidate Hydrochloride","Methylphenidate Hydrochloride Extended-release Tablets","Methylphenidate Hydrochloride Oral Solution","Methylphenidate Hydrochloride Tablets","Oxybutynin Chloride","Oxybutynin Chloride Tablets","Oxycodone And Acetaminophen Oral Solution","Oxycodone And Acetaminophen Tablets","Oxycodone Hydrochloride","Oxycodone Hydrochloride Capsules","Oxycodone Hydrochloride Oral Solution","Oxycodone Hydrochloride Tablets","Oxymorphone Hydrochloride","Oxymorphone Hydrochloride Tablets","Phendimetrazine Tartrate","Phendimetrazine Tartrate Tablets","Phentermine Hydrochloride","Phentermine Hydrochloride Capsules","Phentermine Hydrochloride Tablets","Promethazine Hydrochloride","Promethazine Hydrochloride Tablets","Sodium Polystyrene Sulfonate","Ursodiol","Ursodiol Capsules"],"City":"Longmont","Country":"United States","Application Data":"Yes","Activeness Flag":"Unknown","latitude":"40.188289","longitude":"-105.102375"},{"Manufacturer":"Nan's Place Inc","Manufacturing Type":"MANUFACTURE","Products":["Nitrogen","Nitrous Oxide","Oxygen"],"City":"Baytown","Country":"United States","Application Data":"Yes","Activeness Flag":"Unknown","latitude":"29.720663","longitude":"-94.981769"},{"Manufacturer":"Catalent Belgium","Manufacturing Type":"MANUFACTURE","Products":["Clorazepate Dipotassium","Clorazepate Dipotassium Tablets","Ethotoin","Ethotoin Tablets","Methamphetamine Hydrochloride","Methamphetamine Hydrochloride Tablets","Nadolol","Nadolol Tablets","Plecanatide","Sumatriptan","Sumatriptan Succinate","Trimethobenzamide Hydrochloride","Trimethobenzamide Hydrochloride Capsules"],"City":"Plainsboro","Country":"United States","Application Data":"Yes","Activeness Flag":"Unknown","latitude":"40.340852","longitude":"-74.603983"},{"Manufacturer":"Camden Medical Supply, Inc.","Manufacturing Type":"MANUFACTURE","Products":["Betamethasone","Betamethasone Benzoate","Betamethasone Cream","Betamethasone Dipropionate Cream","Betamethasone Dipropionate Ointment","Betamethasone Sodium Phosphate","Betamethasone Valerate Cream","Betamethasone Valerate Ointment","Nitrofurantoin","Nitrofurantoin Oral Suspension","Promethazine Hydrochloride","Promethazine Hydrochloride Suppositories"],"City":"Moses Lake","Country":"United States","Application Data":"Yes","Activeness Flag":"Unknown","latitude":"47.131167","longitude":"-119.257032"},{"Manufacturer":"Encompass Medical & Specialty Gases Ltd","Manufacturing Type":"MANUFACTURE","Products":["Acetaminophen","Butalbital","Butalbital, Acetaminophen, Caffeine, And Codeine Phosphate Capsules","Caffeine","Cobicistat","Codeine","Codeine Phosphate","Elvitegravir","Elvitegravir, Cobicistat, Emtricitabine, And Tenofovir Disoproxil Fumarate Tablets","Emtricitabine","Laronidase","Laronidase Injection","Somatropin","Somatropin For Injection","Tenofovir Alafenamide","Tenofovir Alafenamide Fumarate","Tenofovir Disoproxil Fumarate"],"City":"Irvine","Country":"United States","Application Data":"Yes","Activeness Flag":"Unknown","latitude":"33.648769","longitude":"-117.716425"},{"Manufacturer":"Norco, Inc.","Manufacturing Type":"MANUFACTURE","Products":["Acetaminophen","Alfuzosin Hydrochloride","Alfuzosin Hydrochloride Extended-release Tablets","Aspirin","Aspirin And Dipyridamole Extended-release Capsules","Azelastine Hydrochloride","Azelastine Hydrochloride Ophthalmic Solution","Azithromycin","Azithromycin For Injection","Budesonide","Bupropion Hydrobromide Extended-release Tablets","Bupropion Hydrochloride","Bupropion Hydrochloride Extended-release Tablets","Caffeine","Caffeine Citrate","Caffeine Citrate Injection","Caffeine Citrate Oral Solution","Calcitriol","Calcitriol Capsules","Capecitabine","Capecitabine Tablets","Carbidopa","Carbidopa And Levodopa Extended-release Tablets","Carbidopa And Levodopa Orally Disintegrating Tablets","Carbidopa And Levodopa Tablets","Carboplatin","Carboplatin For Injection","Carboplatin Injection","Chlorothiazide","Chlorothiazide Sodium For Injection","Citalopram Hydrobromide","Citalopram Tablets","Clindamycin Hydrochloride","Clindamycin Hydrochloride Capsules","Clindamycin Palmitate Hydrochloride","Clopidogrel Bisulfate","Clopidogrel Tablets","Decitabine","Decitabine For Injection","Desloratadine","Desloratadine Tablets","Desmopressin Acetate","Desmopressin Acetate Injection","Desmopressin Nasal Spray Solution","Digoxin","Digoxin Tablets","Diltiazem Hydrochloride","Diltiazem Hydrochloride Extended-release Capsules","Dipyridamole","Divalproex Sodium","Divalproex Sodium Delayed-release Tablets","Docetaxel","Docetaxel Injection","Doxorubicin Hydrochloride","Doxorubicin Hydrochloride For Injection","Doxorubicin Hydrochloride Injection","Doxorubicin Hydrochloride Pegylated Liposome Injection","Duloxetine Delayed-release Capsules","Duloxetine Hydrochloride","Epinastine Hydrochloride","Epinastine Hydrochloride Ophthalmic Solution","Erlotinib Hydrochloride","Erlotinib Tablets","Extended Phenytoin Sodium Capsules","Gabapentin","Gabapentin Capsules","Gabapentin Tablets","Ganirelix Acetate","Gemcitabine For Injection","Gemcitabine Hydrochloride","Hydroxyprogesterone Caproate","Hydroxyprogesterone Caproate Injection","Ibandronate Sodium","Ibandronate Sodium Injection","Imatinib Mesylate","Imatinib Tablets","Isopropyl Alcohol","Isopropyl Rubbing Alcohol","Ketorolac Tromethamine","Latanoprost","Leuprolide Acetate","Levetiracetam","Levetiracetam Extended-release Tablets","Levodopa","Medroxyprogesterone Acetate","Medroxyprogesterone Acetate Injectable Suspension","Metformin Hydrochloride","Metformin Hydrochloride Extended-release Tablets","Metformin Hydrochloride Tablets","Nicardipine Hydrochloride","Nicardipine Hydrochloride In Dextrose Injection","Nicardipine Hydrochloride In Sodium Chloride Injection","Nicardipine Hydrochloride Injection","Octreotide Acetate","Ondansetron","Ondansetron Hydrochloride","Ondansetron Orally Disintegrating Tablets","Ondansetron Tablets","Oxaliplatin","Oxaliplatin For Injection","Oxaliplatin Injection","Oxcarbazepine","Oxcarbazepine Tablets","Pantoprazole Sodium","Pantoprazole Sodium Delayed-release Tablets","Pantoprazole Sodium For Injection","Phenytoin","Phenytoin Sodium","Riluzole","Riluzole Tablets","Rivastigmine","Rivastigmine Tartrate","Rivastigmine Tartrate Capsules","Rubbing Alcohol","Sumatriptan","Sumatriptan Injection","Sumatriptan Succinate","Sumatriptan Tablets","Tamsulosin Hydrochloride","Tamsulosin Hydrochloride Capsules","Temozolomide","Temozolomide Capsules","Testosterone","Testosterone Cypionate","Tiagabine Hydrochloride","Tiagabine Hydrochloride Tablets","Tramadol Hydrochloride","Tramadol Hydrochloride And Acetaminophen Tablets","Tramadol Hydrochloride Extended-release Tablets","Tramadol Hydrochloride Tablets","Vecuronium Bromide","Vecuronium Bromide For Injection","Venlafaxine Hydrochloride","Zonisamide","Zonisamide Capsules"],"City":"Minneapolis","Country":"United States","Application Data":"Yes","Activeness Flag":"Unknown","latitude":"44.941994","longitude":"-93.341485"},{"Manufacturer":"HIKAL LIMITED","Manufacturing Type":"MANUFACTURE","Products":["Oxygen"],"City":"Sterling","Country":"United States","Application Data":"Yes","Activeness Flag":"Unknown","latitude":"41.809854","longitude":"-89.659711"},{"Manufacturer":"Shanghai Roche  Pharmaceuticals Co., Ltd.","Manufacturing Type":"MANUFACTURE","Products":["Nitrogen","Oxygen"],"City":"Canton","Country":"United States","Application Data":"Yes","Activeness Flag":"Unknown","latitude":"40.76561","longitude":"-81.405034"},{"Manufacturer":"Matheson Tri-Gas, Inc.","Manufacturing Type":"MANUFACTURE","Products":["Donepezil Hydrochloride","Donepezil Hydrochloride Tablets","Letrozole","Letrozole Tablets"],"City":"Williamsville","Country":"United States","Application Data":"Yes","Activeness Flag":"Unknown","latitude":"42.95351","longitude":"-78.70843"},{"Manufacturer":"Cee-Kay Supply, Inc.","Manufacturing Type":"MANUFACTURE","Products":["Cefotetan","Cefotetan Disodium","Cefotetan For Injection"],"City":"Wilson","Country":"United States","Application Data":"Yes","Activeness Flag":"Unknown","latitude":"35.6616","longitude":"-77.9623"},{"Manufacturer":"Gilead Sciences, Inc.","Manufacturing Type":"API MANUFACTURE","Products":["Alendronate Sodium"],"City":"New Berlin","Country":"United States","Application Data":"Yes","Activeness Flag":"Unknown","latitude":"42.993185","longitude":"-88.116886"},{"Manufacturer":"In-Home Medical and Respiratory Services Inc","Manufacturing Type":"MANUFACTURE","Products":["Nitrogen","Oxygen"],"City":"Saint Paul","Country":"United States","Application Data":"Yes","Activeness Flag":"Unknown","latitude":"45.068635","longitude":"-93.049987"},{"Manufacturer":"Halifax Medical Equipment Inc","Manufacturing Type":"MANUFACTURE","Products":["Buprenorphine Extended-release Injection","Buprenorphine Hydrochloride"],"City":"Rock Falls","Country":"United States","Application Data":"Yes","Activeness Flag":"Unknown","latitude":"41.761634","longitude":"-89.67787"},{"Manufacturer":"Airgas Usa, LLC","Manufacturing Type":"MANUFACTURE","Products":["Filgrastim"],"City":"Indianapolis","Country":"United States","Application Data":"Yes","Activeness Flag":"Unknown","latitude":"39.682369","longitude":"-86.19273"},{"Manufacturer":"Amgen Manufacturing, Limited","Manufacturing Type":"MANUFACTURE","Products":["Oxygen"],"City":"Middlebury","Country":"United States","Application Data":"Yes","Activeness Flag":"Unknown","latitude":"41.556592","longitude":"-73.100659"},{"Manufacturer":"Breathe Easy Therapeutics, Inc","Manufacturing Type":"MANUFACTURE","Products":["Nitrogen"],"City":"Portland","Country":"United States","Application Data":"Yes","Activeness Flag":"Unknown","latitude":"45.536656","longitude":"-122.658674"},{"Manufacturer":"Stat Medical Supplies, Inc","Manufacturing Type":"MANUFACTURE","Products":["Nitrogen"],"City":"Englishtown","Country":"United States","Application Data":"Yes","Activeness Flag":"Unknown","latitude":"40.256899","longitude":"-74.388309"},{"Manufacturer":"YUNG SHIN PHARM. IND. CO., LTD. (TAICHUNG YOUTH FACTORY)","Manufacturing Type":"MANUFACTURE","Products":["Oxygen"],"City":"Santa Rosa","Country":"United States","Application Data":"Yes","Activeness Flag":"Unknown","latitude":"38.471988","longitude":"-122.73557"},{"Manufacturer":"Teva Canada Limited","Manufacturing Type":"MANUFACTURE","Products":["Aminolevulinic Acid Hydrochloride"],"City":"Knoxville","Country":"United States","Application Data":"Yes","Activeness Flag":"Unknown","latitude":"35.909777","longitude":"-84.155231"},{"Manufacturer":"Linde Inc.","Manufacturing Type":"MANUFACTURE","Products":["Nitrogen"],"City":"Colorado Springs","Country":"United States","Application Data":"Yes","Activeness Flag":"Unknown","latitude":"38.888551","longitude":"-104.83064"},{"Manufacturer":"King Pharmaceuticals LLC","Manufacturing Type":"MANUFACTURE","Products":["Oxygen"],"City":"Safford","Country":"United States","Application Data":"Yes","Activeness Flag":"Unknown","latitude":"32.82004","longitude":"-109.732921"},{"Manufacturer":"Praxair Distribution, Inc.","Manufacturing Type":"API MANUFACTURE","Products":["Oxygen"],"City":"Fort Morgan","Country":"United States","Application Data":"Yes","Activeness Flag":"Unknown","latitude":"40.248672","longitude":"-103.801557"},{"Manufacturer":"Pratt Supplies Inc.","Manufacturing Type":"MANUFACTURE","Products":["Oxygen"],"City":"Wichita","Country":"United States","Application Data":"Yes","Activeness Flag":"Unknown","latitude":"37.737502","longitude":"-97.331784"},{"Manufacturer":"Praxair Distribution, Inc.","Manufacturing Type":"MANUFACTURE","Products":["Nitrogen","Oxygen"],"City":"Mount Vernon","Country":"United States","Application Data":"Yes","Activeness Flag":"Unknown","latitude":"38.315727","longitude":"-88.918905"},{"Manufacturer":"Sciegen Pharmaceuticals, Inc.","Manufacturing Type":"MANUFACTURE","Products":["Nitrogen","Oxygen"],"City":"Washington","Country":"United States","Application Data":"Yes","Activeness Flag":"Unknown","latitude":"38.655024","longitude":"-87.153525"},{"Manufacturer":"Metro Welding Supply Corporation","Manufacturing Type":"MANUFACTURE","Products":["Nitrogen","Oxygen"],"City":"Charlotte","Country":"United States","Application Data":"Yes","Activeness Flag":"Unknown","latitude":"35.270474","longitude":"-80.824617"},{"Manufacturer":"Airgas Usa, LLC","Manufacturing Type":"MANUFACTURE","Products":["Oxygen"],"City":"Saint Louis","Country":"United States","Application Data":"Yes","Activeness Flag":"Unknown","latitude":"38.703546","longitude":"-90.431417"},{"Manufacturer":"Perrigo Company","Manufacturing Type":"MANUFACTURE","Products":["Oxygen"],"City":"Salt Lake City","Country":"United States","Application Data":"Yes","Activeness Flag":"Unknown","latitude":"40.756644","longitude":"-111.824738"},{"Manufacturer":"3m Company","Manufacturing Type":"MANUFACTURE","Products":["Methylene Blue","Methylene Blue Injection"],"City":"Fajardo","Country":"United States","Application Data":"Yes","Activeness Flag":"Unknown","latitude":"18.328604","longitude":"-65.651618"},{"Manufacturer":"Baxter Oncology GmbH","Manufacturing Type":"MANUFACTURE","Products":["Oxygen"],"City":"Las Cruces","Country":"United States","Application Data":"Yes","Activeness Flag":"Unknown","latitude":"32.311044","longitude":"-106.756994"},{"Manufacturer":"Special Care Medical of South Carolina, Inc.","Manufacturing Type":"MANUFACTURE","Products":["Carbon Dioxide"],"City":"Cleveland","Country":"United States","Application Data":"Yes","Activeness Flag":"Unknown","latitude":"41.439717","longitude":"-81.652066"},{"Manufacturer":"AMRYT PHARMACEUTICALS DESIGNATED ACTIVITY COMPANY","Manufacturing Type":"MANUFACTURE","Products":["Cholic Acid","Cholic Acid Capsules"],"City":"Canovanas","Country":"United States","Application Data":"Yes","Activeness Flag":"Unknown","latitude":"18.3625","longitude":"-65.8921"},{"Manufacturer":"Nomax, Inc.","Manufacturing Type":"MANUFACTURE","Products":["Alanine","Arginine","Arginine Hydrochloride","Bacteriostatic Sodium Chloride Injection","Calcium Chloride","Dextrose","Dextrose And Sodium Chloride Injection","Dextrose Injection","Dibasic Potassium Phosphate","Dopamine Hydrochloride","Esmolol Hydrochloride","Esmolol Hydrochloride Injection","Glycine","Glycine Irrigation","Heparin Sodium","Heparin Sodium Injection","Histidine","Isoleucine","Lactated Ringer's Irrigation","Leucine","Lidocaine","Lidocaine Hydrochloride","Lidocaine Hydrochloride Injection","Lysine Acetate","Lysine Hydrochloride","Magnesium Chloride","Mannitol","Mannitol In Sodium Chloride Injection","Mannitol Injection","Metronidazole","Metronidazole Benzoate","Metronidazole Injection","Monobasic Potassium Phosphate","Monosodium Glutamate","Phenylalanine","Potassium Chloride","Potassium Chloride In Dextrose And Sodium Chloride Injection","Potassium Chloride In Dextrose Injection","Potassium Chloride In Lactated Ringer's And Dextrose Injection","Potassium Chloride In Sodium Chloride Injection","Proline","Serine","Sodium Acetate","Sodium Chloride","Sodium Chloride Injection","Sodium Chloride Irrigation","Sodium Gluconate","Sorbitol","Sterile Water For Irrigation","Taurine","Threonine","Tryptophan","Tyrosine","Valine"],"City":"Appleton","Country":"United States","Application Data":"Yes","Activeness Flag":"Unknown","latitude":"44.294509","longitude":"-88.35984"},{"Manufacturer":"Norco, Inc.","Manufacturing Type":"MANUFACTURE","Products":["Lamotrigine","Lamotrigine Extended-release Tablets"],"City":"Sedalia","Country":"United States","Application Data":"Yes","Activeness Flag":"Unknown","latitude":"38.71382","longitude":"-93.255323"},{"Manufacturer":"Community Oxygen Service, Inc.","Manufacturing Type":"MANUFACTURE","Products":["Oxygen"],"City":"Thomasville","Country":"United States","Application Data":"Yes","Activeness Flag":"Unknown","latitude":"30.830183","longitude":"-83.989752"},{"Manufacturer":"Medtech Gases Inc","Manufacturing Type":"MANUFACTURE","Products":["Nitrogen","Nitrous Oxide","Oxygen"],"City":"Queensbury","Country":"United States","Application Data":"Yes","Activeness Flag":"Unknown","latitude":"43.349755","longitude":"-73.603202"},{"Manufacturer":"Airgas Usa, LLC","Manufacturing Type":"MANUFACTURE","Products":["Esomeprazole Magnesium","Esomeprazole Sodium"],"City":"Lafayette","Country":"United States","Application Data":"Yes","Activeness Flag":"Unknown","latitude":"30.222914","longitude":"-91.997383"},{"Manufacturer":"Ferring Production Inc.","Manufacturing Type":"MANUFACTURE","Products":["Repaglinide","Repaglinide Tablets"],"City":"Allegan","Country":"United States","Application Data":"Yes","Activeness Flag":"Unknown","latitude":"42.427625","longitude":"-85.826967"},{"Manufacturer":"HIKMA FARMAC\u00caUTICA (PORTUGAL), S.A.","Manufacturing Type":"MANUFACTURE","Products":["Oxygen"],"City":"Rahway","Country":"United States","Application Data":"Yes","Activeness Flag":"Unknown","latitude":"40.609106","longitude":"-74.258275"},{"Manufacturer":"Dentsply Sirona Inc.","Manufacturing Type":"MANUFACTURE","Products":["Amphetamine Sulfate","Amphetamine Sulfate Tablets","Chloroquine","Chloroquine Phosphate","Chloroquine Phosphate Tablets","Midodrine Hydrochloride","Midodrine Hydrochloride Tablets","Primaquine Phosphate","Primaquine Phosphate Tablets","Pyrimethamine","Pyrimethamine Tablets"],"City":"Leakesville","Country":"United States","Application Data":"Yes","Activeness Flag":"Unknown","latitude":"31.145833","longitude":"-88.566673"},{"Manufacturer":"Elba, Inc.","Manufacturing Type":"MANUFACTURE","Products":["Mebendazole"],"City":"Phoenix","Country":"United States","Application Data":"Yes","Activeness Flag":"Unknown","latitude":"33.41693","longitude":"-111.99281"},{"Manufacturer":"Wes Pharma Inc","Manufacturing Type":"MANUFACTURE","Products":["Bimatoprost","Bimatoprost Ophthalmic Solution","Caffeine","Caffeine Citrate","Caffeine Citrate Oral Solution","Cromolyn Sodium","Cromolyn Sodium Oral Solution","Diphenhydramine Hydrochloride","Diphenhydramine Hydrochloride Injection","Dorzolamide Hydrochloride","Dorzolamide Hydrochloride And Timolol Maleate Ophthalmic Solution","Dorzolamide Hydrochloride Ophthalmic Solution","Isoproterenol Hydrochloride","Isoproterenol Hydrochloride Injection","Isoproterenol Sulfate","Levetiracetam","Levetiracetam Injection","Levofloxacin","Nevirapine","Nevirapine Tablets","Sodium Nitroprusside","Succinylcholine Chloride","Succinylcholine Chloride Injection","Tranexamic Acid","Tranexamic Acid Injection","Travoprost","Travoprost Ophthalmic Solution","Verapamil Hydrochloride","Verapamil Hydrochloride Injection"],"City":"Grundy","Country":"United States","Application Data":"Yes","Activeness Flag":"Unknown","latitude":"37.259133","longitude":"-82.101157"},{"Manufacturer":"PLANTEX LTD.","Manufacturing Type":"API MANUFACTURE","Products":["Nitrogen"],"City":"Redding","Country":"United States","Application Data":"Yes","Activeness Flag":"Unknown","latitude":"40.597471","longitude":"-122.386003"},{"Manufacturer":"BCN PEPTIDES SA","Manufacturing Type":"MANUFACTURE","Products":["Oxygen"],"City":"East Brunswick","Country":"United States","Application Data":"Yes","Activeness Flag":"Unknown","latitude":"40.478802","longitude":"-74.407739"},{"Manufacturer":"Raimy Corporation","Manufacturing Type":"MANUFACTURE","Products":["Baclofen","Baclofen Tablets","Ciprofloxacin","Ciprofloxacin Hydrochloride","Ciprofloxacin Tablets"],"City":"Flagstaff","Country":"United States","Application Data":"Yes","Activeness Flag":"Unknown","latitude":"35.191698","longitude":"-111.638008"},{"Manufacturer":"RECIPHARM PHARMASERVICES PRIVATE LIMITED","Manufacturing Type":"API MANUFACTURE","Products":["Oxygen"],"City":"Foster City","Country":"United States","Application Data":"Yes","Activeness Flag":"Unknown","latitude":"37.56666","longitude":"-122.282929"},{"Manufacturer":"Gulf State Chemical & Welding Supply Inc","Manufacturing Type":"API MANUFACTURE","Products":["Doxepin Hydrochloride","Doxepin Hydrochloride Capsules"],"City":"Saranac Lake","Country":"United States","Application Data":"Yes","Activeness Flag":"Unknown","latitude":"44.328787","longitude":"-74.132773"},{"Manufacturer":"G & W Laboratories, Inc.","Manufacturing Type":"MANUFACTURE","Products":["Nitrogen","Oxygen"],"City":"Jayuya","Country":"United States","Application Data":"Yes","Activeness Flag":"Unknown","latitude":"18.19126","longitude":"-66.535487"},{"Manufacturer":"Merced Medical Supply, Inc.","Manufacturing Type":"MANUFACTURE","Products":["Oxygen"],"City":"East Brunswick","Country":"United States","Application Data":"Yes","Activeness Flag":"Unknown","latitude":"40.449944","longitude":"-74.418906"},{"Manufacturer":"GLAND PHARMA LIMITED","Manufacturing Type":"MANUFACTURE","Products":["Nitrogen","Oxygen"],"City":"Spencer","Country":"United States","Application Data":"Yes","Activeness Flag":"Unknown","latitude":"38.805065","longitude":"-81.353239"},{"Manufacturer":"SANOFI WINTHROP INDUSTRIE","Manufacturing Type":"MANUFACTURE","Products":["Nitrogen","Oxygen"],"City":"Hermon","Country":"United States","Application Data":"Yes","Activeness Flag":"Unknown","latitude":"44.797886","longitude":"-68.848669"},{"Manufacturer":"Vetter Pharma-Fertigung GmbH & Co. KG","Manufacturing Type":"MANUFACTURE","Products":["Albumin Human"],"City":"Okeechobee","Country":"United States","Application Data":"Yes","Activeness Flag":"Unknown","latitude":"27.260146","longitude":"-80.854681"},{"Manufacturer":"Messer LLC","Manufacturing Type":"MANUFACTURE","Products":["Oxygen"],"City":"Indianapolis","Country":"United States","Application Data":"Yes","Activeness Flag":"Unknown","latitude":"39.750499","longitude":"-86.253121"},{"Manufacturer":"Airgas Usa, LLC","Manufacturing Type":"MANUFACTURE","Products":["Oxygen"],"City":"Galt","Country":"United States","Application Data":"Yes","Activeness Flag":"Unknown","latitude":"38.266265","longitude":"-121.308071"},{"Manufacturer":"Carelinc Medical Equipment & Supply Co, LLC","Manufacturing Type":"MANUFACTURE","Products":["Cromolyn Sodium","Cromolyn Sodium Oral Solution","Tobramycin","Tobramycin Inhalation Solution","Tobramycin Sulfate"],"City":"Pittsburg","Country":"United States","Application Data":"Yes","Activeness Flag":"Unknown","latitude":"38.013163","longitude":"-121.862953"},{"Manufacturer":"Gate City Medical Equipment, Inc.","Manufacturing Type":"MANUFACTURE","Products":["Bupropion Hydrobromide","Bupropion Hydrobromide Extended-release Tablets","Bupropion Hydrochloride","Bupropion Hydrochloride Extended-release Tablets","Carbidopa","Carbidopa Tablets","Chlordiazepoxide","Chlordiazepoxide Hydrochloride","Chlordiazepoxide Hydrochloride And Clidinium Bromide Capsules","Clidinium Bromide","Diclofenac Sodium","Diclofenac Sodium Extended-release Tablets","Diltiazem Hydrochloride","Diltiazem Hydrochloride Extended-release Capsules","Enalapril Maleate","Enalapril Maleate And Hydrochlorothiazide Tablets","Enalapril Maleate Tablets","Ethacrynate Sodium For Injection","Ethacrynic Acid","Ethacrynic Acid Tablets","Flucytosine","Flucytosine Capsules","Hydrochlorothiazide","Isosorbide Dinitrate Tablets","Lorazepam","Lorazepam Tablets","Mesalamine","Mesalamine Extended-release Capsules","Metformin Hydrochloride","Metformin Hydrochloride Extended-release Tablets","Metyrosine","Metyrosine Capsules","Nifedipine","Nifedipine Extended-release Tablets","Omeprazole","Omeprazole And Sodium Bicarbonate Capsules","Omeprazole And Sodium Bicarbonate For Oral Suspension","Omeprazole Magnesium","Pentoxifylline","Pentoxifylline Extended-release Tablets","Phytonadione","Phytonadione Tablets","Primidone","Primidone Tablets","Rifaximin","Sodium Bicarbonate","Tolcapone","Tolcapone Tablets","Trientine Hydrochloride","Trientine Hydrochloride Capsules"],"City":"Orlando","Country":"United States","Application Data":"Yes","Activeness Flag":"Unknown","latitude":"28.503996","longitude":"-81.428802"},{"Manufacturer":"Ilmo Products Company","Manufacturing Type":"MANUFACTURE","Products":["Atorvastatin Calcium","Atorvastatin Calcium Tablets","Axitinib","Axitinib Tablets","Crizotinib","Crizotinib Capsules","Latanoprost","Pregabalin","Pregabalin Capsules","Pregabalin Extended-release Tablets","Temsirolimus","Temsirolimus Injection","Voriconazole","Voriconazole For Oral Suspension","Voriconazole Tablets"],"City":"Pointe-Claire ","Country":"Canada","Application Data":"Yes","Activeness Flag":"Unknown","latitude":"45.474607","longitude":"-73.805502"},{"Manufacturer":"Beijing Sciecure Pharmaceutical Co., Ltd.","Manufacturing Type":"MANUFACTURE","Products":["Nitrogen","Oxygen"],"City":"BRISTOL","Country":"United Kingdom","Application Data":"Yes","Activeness Flag":"Unknown","latitude":"51.52679","longitude":"-2.64474"},{"Manufacturer":"Matheson Tri-Gas, Inc.","Manufacturing Type":"MANUFACTURE","Products":["Nitrogen","Oxygen"],"City":"CRAMLINGTON","Country":"United Kingdom","Application Data":"Yes","Activeness Flag":"Unknown","latitude":"55.097572","longitude":"-1.636454"},{"Manufacturer":"Commonspirit Health","Manufacturing Type":"MANUFACTURE","Products":["Belinostat","Belinostat For Injection","Melphalan","Melphalan For Injection","Thiotepa","Thiotepa For Injection"],"City":"WESTPORT","Country":"Ireland","Application Data":"Yes","Activeness Flag":"Unknown","latitude":"53.80231","longitude":"-9.51589"},{"Manufacturer":"Ameri-Quipt of North Carolina, Inc.","Manufacturing Type":"MANUFACTURE","Products":["Acyclovir","Acyclovir Ointment","Betamethasone","Betamethasone Benzoate","Betamethasone Cream","Betamethasone Dipropionate Cream","Betamethasone Dipropionate Ointment","Betamethasone Sodium Phosphate","Betamethasone Valerate Cream","Betamethasone Valerate Ointment","Clindamycin And Benzoyl Peroxide Topical Gel","Clindamycin Hydrochloride","Clindamycin Palmitate Hydrochloride","Clindamycin Phosphate","Clindamycin Phosphate Topical Solution","Clobetasol Propionate","Clobetasol Propionate Cream","Clobetasol Propionate Lotion","Clobetasol Propionate Ointment","Desonide","Desonide Cream","Desoximetasone","Desoximetasone Cream","Desoximetasone Ointment","Diclofenac Sodium","Diclofenac Sodium Topical Solution","Fluocinonide","Fluocinonide Cream","Fluocinonide Topical Solution","Mesalamine","Mesalamine Suppositories","Nystatin","Nystatin And Triamcinolone Acetonide Ointment","Nystatin Ointment","Triamcinolone","Triamcinolone Acetonide"],"City":"NOTTINGHAM","Country":"United Kingdom","Application Data":"Yes","Activeness Flag":"Unknown","latitude":"52.92619","longitude":"-1.18508"},{"Manufacturer":"Nexair, LLC","Manufacturing Type":"MANUFACTURE","Products":["Nimodipine","Nimodipine Capsules"],"City":"Windsor","Country":"Canada","Application Data":"Yes","Activeness Flag":"Unknown","latitude":"42.277168","longitude":"-83.054118"},{"Manufacturer":"Jcmh Home Health Products, Inc.","Manufacturing Type":"MANUFACTURE","Products":["Oxygen"],"City":"Richmond","Country":"Canada","Application Data":"Yes","Activeness Flag":"Unknown","latitude":"49.194477","longitude":"-123.072476"},{"Manufacturer":"Guangdong New Space-time Technology Corp., Ltd.","Manufacturing Type":"MANUFACTURE","Products":["Bacteriostatic Sodium Chloride Injection","Sodium Chloride","Sodium Chloride Injection"],"City":"BEUVRY LA FORET","Country":"France","Application Data":"Yes","Activeness Flag":"Unknown","latitude":"50.445703","longitude":"3.26933"},{"Manufacturer":"UMEDICA LABORATORIES PRIVATE LIMITED","Manufacturing Type":"MANUFACTURE","Products":["Anhydrous Citric Acid","Citric Acid Monohydrate","Epinephrine","Epinephrine Injection","Hydrochlorothiazide","Irbesartan","Irbesartan And Hydrochlorothiazide Tablets","Lisinopril","Lisinopril And Hydrochlorothiazide Tablets","Magnesium Oxide","Quinapril And Hydrochlorothiazide Tablets","Quinapril Hydrochloride","Sodium Picosulfate","Sodium Picosulfate, Magnesium Oxide, And Citric Acid For Oral Solution"],"City":"ST MAUR DES FOSSES","Country":"France","Application Data":"Yes","Activeness Flag":"Unknown","latitude":"48.802794","longitude":"2.47099"},{"Manufacturer":"Airgas Usa, LLC","Manufacturing Type":"MANUFACTURE","Products":["Albumin Human"],"City":"VERTOLAYE","Country":"France","Application Data":"Yes","Activeness Flag":"Unknown","latitude":"45.65363","longitude":"3.70655"},{"Manufacturer":"Pharmaceutics International, Inc.","Manufacturing Type":"MANUFACTURE","Products":["Abacavir Sulfate","Abacavir Tablets","Acarbose","Acarbose Tablets","Benzonatate","Benzonatate Capsules","Buspirone Hydrochloride","Buspirone Hydrochloride Tablets","Calcitriol","Calcitriol Capsules","Cyproheptadine Hydrochloride","Cyproheptadine Hydrochloride Tablets","Dutasteride","Dutasteride Capsules","Efavirenz","Efavirenz Tablets","Emtricitabine","Emtricitabine And Tenofovir Disoproxil Fumarate Tablets","Ergocalciferol","Ergocalciferol Capsules","Ethacrynic Acid","Ethacrynic Acid Tablets","Ethosuximide","Ethosuximide Capsules","Flucytosine","Flucytosine Capsules","Fosphenytoin Sodium","Fosphenytoin Sodium Injection","Hydralazine Hydrochloride","Hydralazine Hydrochloride Tablets","Hydrocortisone","Hydrocortisone Hemisuccinate","Hydrocortisone Sodium Succinate","Hydrocortisone Tablets","Ibuprofen","Ibuprofen Lysine","Ibuprofen Tablets","Lamivudine","Lamivudine And Zidovudine Tablets","Lamivudine Tablets","Lidocaine","Lidocaine Ointment","Mefenamic Acid","Mefenamic Acid Capsules","Meloxicam","Meloxicam Tablets","Memantine Hydrochloride","Memantine Hydrochloride Tablets","Methoxsalen","Methoxsalen Capsules","Metronidazole","Metronidazole Benzoate","Metronidazole Tablets","Mycophenolate Mofetil","Mycophenolate Mofetil Capsules","Mycophenolate Mofetil Tablets","Nevirapine","Nevirapine Tablets","Nystatin","Nystatin And Triamcinolone Acetonide Ointment","Omega-3-acid Ethyl Esters Capsules","Omega-3-acids Ethyl Esters","Oseltamivir Phosphate","Oseltamivir Phosphate Capsules","Piroxicam","Piroxicam Capsules","Polyethylene Glycol 3350","Potassium Chloride","Potassium Chloride Extended-release Tablets","Pramipexole Dihydrochloride","Prednisone","Prednisone Tablets","Promethazine Hydrochloride","Promethazine Hydrochloride Tablets","Ranitidine Hydrochloride","Ranitidine Tablets","Sodium Bicarbonate","Sodium Chloride","Sodium Sulfate","Tacrolimus","Tacrolimus Capsules","Tenofovir Disoproxil Fumarate","Tetracycline","Tetracycline Hydrochloride","Tetracycline Hydrochloride Capsules","Triamcinolone","Triamcinolone Acetonide","Triamcinolone Acetonide Cream","Triamcinolone Acetonide Ointment","Ursodiol","Ursodiol Capsules","Ursodiol Tablets","Vancomycin","Vancomycin Hydrochloride","Vancomycin Hydrochloride Capsules","Zidovudine"],"City":"Maisons-Alfort","Country":"France","Application Data":"Yes","Activeness Flag":"Unknown","latitude":"48.795688","longitude":"2.433683"},{"Manufacturer":"PFIZER IRELAND PHARMACEUTICALS","Manufacturing Type":"MANUFACTURE","Products":["Carbon Dioxide"],"City":"Kalundborg","Country":"Denmark","Application Data":"Yes","Activeness Flag":"Unknown","latitude":"55.67522","longitude":"11.11775"},{"Manufacturer":"Zhejiang Bangli Medical Products Co., Ltd","Manufacturing Type":"MANUFACTURE","Products":["Oxygen"],"City":"Bagsv\u00e6rd","Country":"Denmark","Application Data":"Yes","Activeness Flag":"Unknown","latitude":"55.752335","longitude":"12.449697"},{"Manufacturer":"Pharbil Waltrop GmbH","Manufacturing Type":"MANUFACTURE","Products":["Oxygen"],"City":"Bielefeld","Country":"Germany","Application Data":"Yes","Activeness Flag":"Unknown","latitude":"52.004265","longitude":"8.507843"},{"Manufacturer":"AIRGAS USA, LLC","Manufacturing Type":"MANUFACTURE","Products":["Oseltamivir Phosphate","Oseltamivir Phosphate Capsules"],"City":"Reinbek","Country":"Germany","Application Data":"Yes","Activeness Flag":"Unknown","latitude":"53.524154","longitude":"10.244522"},{"Manufacturer":"Airgas Usa, LLC","Manufacturing Type":"MANUFACTURE","Products":["Nitrogen"],"City":"Plankstadt","Country":"Germany","Application Data":"Yes","Activeness Flag":"Unknown","latitude":"49.404165","longitude":"8.576115"},{"Manufacturer":"Matheson Tri-Gas, Inc.","Manufacturing Type":"MANUFACTURE","Products":["Acetaminophen","Amphetamine Sulfate","Bosentan","Bosentan Tablets","Carbidopa","Carbidopa Tablets","Dextroamphetamine Sulfate","Disulfiram","Disulfiram Tablets","Hydrocodone Bitartrate","Hydrocodone Bitartrate And Acetaminophen Tablets","Hydrocodone Bitartrate Extended-release Capsules","Naproxen","Nevirapine","Nevirapine Extended Release Tablets","Nitrofurantoin","Nitrofurantoin Capsules","Omeprazole","Omeprazole And Sodium Bicarbonate Capsules","Omeprazole And Sodium Bicarbonate For Oral Suspension","Omeprazole Magnesium","Oxycodone And Acetaminophen Tablets","Oxycodone Hydrochloride","Oxycodone Hydrochloride Tablets","Paroxetine Capsules","Paroxetine Mesylate","Paroxetine Mesylate Tablets","Paroxetine Tablets","Pyridostigmine Bromide","Pyridostigmine Bromide Extended-release Tablets","Sodium Bicarbonate"],"City":"Alling","Country":"Germany","Application Data":"Yes","Activeness Flag":"Unknown","latitude":"48.138874","longitude":"11.234911"},{"Manufacturer":"Roberts Oxygen Company, Inc.","Manufacturing Type":"MANUFACTURE","Products":["Nitrogen","Oxygen"],"City":"Leverkusen","Country":"Germany","Application Data":"Yes","Activeness Flag":"Unknown","latitude":"51.023377","longitude":"7.027301"},{"Manufacturer":"Air Products and Chemicals, Inc.","Manufacturing Type":"MANUFACTURE","Products":["Albendazole","Albendazole Tablets","Buspirone Hydrochloride","Buspirone Hydrochloride Tablets","Cinacalcet Hydrochloride","Cinacalcet Tablets","Efavirenz","Efavirenz Tablets","Emtricitabine","Emtricitabine And Tenofovir Disoproxil Fumarate Tablets","Hydrocortisone","Hydrocortisone Hemisuccinate","Hydrocortisone Sodium Succinate","Hydrocortisone Tablets","Ibuprofen","Ibuprofen Lysine","Ibuprofen Tablets","Mycophenolate Mofetil","Mycophenolate Mofetil Capsules","Mycophenolate Mofetil Tablets","Ranitidine Hydrochloride","Ranitidine Tablets","Tenofovir Disoproxil Fumarate"],"City":"Bergkamen","Country":"Germany","Application Data":"Yes","Activeness Flag":"Unknown","latitude":"51.620489","longitude":"7.628753"},