[{"Manufacturer":"Lgm Pharma Solutions, LLC","Manufacturing Type":"API Manufacturer","Products":["Ciprofloxacin","Ciprofloxacin Hydrochloride","Ciprofloxacin Tablets"],"City":"South Plainfield","Country":"United States","Application Data":"Yes","Activeness Flag":"Unknown","latitude":"40.560018","longitude":"-74.407869"},{"Manufacturer":"TARO PHARMACEUTICAL INDUSTRIES LTD.","Manufacturing Type":"Drug Product Manufacturer","Products":["Ketorolac Tromethamine"],"City":"Parsippany","Country":"United States","Application Data":"Yes","Activeness Flag":"Unknown","latitude":"40.873778","longitude":"-74.449341"},{"Manufacturer":"Jiangsu Hengrui Medicine Co., Ltd. Preparations No.2 Factory","Manufacturing Type":"Drug Product Manufacturer","Products":["Atorvastatin Calcium","Atorvastatin Calcium Tablets","Carbamazepine","Carbamazepine Tablets","Celecoxib","Celecoxib Capsules","Chlorthalidone","Chlorthalidone Tablets","Hydrochlorothiazide","Olmesartan Medoxomil","Olmesartan Medoxomil And Hydrochlorothiazide Tablets","Olmesartan Medoxomil Tablets","Sildenafil Citrate","Sildenafil Tablets","Tadalafil","Tadalafil Tablets"],"City":"Shirley","Country":"United States","Application Data":"Yes","Activeness Flag":"Unknown","latitude":"40.841557","longitude":"-72.885263"},{"Manufacturer":"Digestive Care, Inc.","Manufacturing Type":"Drug Product Manufacturer","Products":["Oxygen"],"City":"East Hanover","Country":"United States","Application Data":"Yes","Activeness Flag":"Unknown","latitude":"40.80609","longitude":"-74.392092"},{"Manufacturer":"ENCUBE ETHICALS PRIVATE LIMITED","Manufacturing Type":"Drug Product Manufacturer","Products":["Nitrogen","Oxygen"],"City":"Philadelphia","Country":"United States","Application Data":"Yes","Activeness Flag":"Unknown","latitude":"40.042845","longitude":"-75.000086"},{"Manufacturer":"Airgas Usa, LLC","Manufacturing Type":"Drug Product Manufacturer","Products":["Oxygen"],"City":"Farmington","Country":"United States","Application Data":"Yes","Activeness Flag":"Unknown","latitude":"36.748291","longitude":"-108.183933"},{"Manufacturer":"ALCON LABORATORIES (INDIA) PRIVATE LIMITED","Manufacturing Type":"Drug Product Manufacturer","Products":["Glyburide","Glyburide Tablets","Levetiracetam","Levetiracetam Extended-release Tablets","Metoprolol Fumarate","Metoprolol Succinate","Metoprolol Succinate Extended-release Capsules","Metoprolol Succinate Extended-release Tablets","Quetiapine Extended-release Tablets","Quetiapine Fumarate"],"City":"Hyattsville","Country":"United States","Application Data":"Yes","Activeness Flag":"Unknown","latitude":"38.927938","longitude":"-76.930857"},{"Manufacturer":"Jacobus Pharmaceutical Co Inc","Manufacturing Type":"Drug Product Manufacturer","Products":["Oxygen"],"City":"Kingsport","Country":"United States","Application Data":"Yes","Activeness Flag":"Unknown","latitude":"36.544641","longitude":"-82.569155"},{"Manufacturer":"Rfj & G Incorporated","Manufacturing Type":"Drug Product Manufacturer","Products":["Drospirenone","Ethinyl Estradiol","Levonorgestrel","Levonorgestrel And Ethinyl Estradiol Tablets","Levonorgestrel Tablets","Norethindrone","Norgestimate"],"City":"Weatherford","Country":"United States","Application Data":"Yes","Activeness Flag":"Unknown","latitude":"32.750037","longitude":"-97.785022"},{"Manufacturer":"Airgas Usa, LLC","Manufacturing Type":"Drug Product Manufacturer","Products":["Nitrogen","Nitrous Oxide","Oxygen"],"City":"Vacaville","Country":"United States","Application Data":"Yes","Activeness Flag":"Unknown","latitude":"38.391404","longitude":"-121.945278"},{"Manufacturer":"Mylan Pharmaceuticals Inc.","Manufacturing Type":"API Manufacturer","Products":["Metoprolol Fumarate","Metoprolol Succinate","Metoprolol Succinate Extended-release Capsules","Metoprolol Succinate Extended-release Tablets"],"City":"East Longmeadow","Country":"United States","Application Data":"Yes","Activeness Flag":"Unknown","latitude":"42.039333","longitude":"-72.517745"},{"Manufacturer":"Professional Medical & Welding Supply","Manufacturing Type":"Drug Product Manufacturer","Products":["Oxygen"],"City":"Moraine","Country":"United States","Application Data":"Yes","Activeness Flag":"Unknown","latitude":"39.717691","longitude":"-84.214633"},{"Manufacturer":"Broadway Medical Service and Supply, Inc.","Manufacturing Type":"API Manufacturer","Products":["Nitrogen","Oxygen"],"City":"Fort Lauderdale","Country":"United States","Application Data":"Yes","Activeness Flag":"Unknown","latitude":"26.072473","longitude":"-80.210229"},{"Manufacturer":"Praxair Distribution, Inc.","Manufacturing Type":"Drug Product Manufacturer","Products":["Oxygen"],"City":"Indianapolis","Country":"United States","Application Data":"Yes","Activeness Flag":"Unknown","latitude":"39.761","longitude":"-86.161"},{"Manufacturer":"ALPHAPHARM PTY LTD","Manufacturing Type":"Drug Product Manufacturer","Products":["Duloxetine Delayed-release Capsules","Duloxetine Hydrochloride"],"City":"Salt Lake City","Country":"United States","Application Data":"Yes","Activeness Flag":"Unknown","latitude":"40.730412","longitude":"-111.989763"},{"Manufacturer":"ASTELLAS IRELAND CO., LIMITED","Manufacturing Type":"Drug Product Manufacturer","Products":["Oxygen"],"City":"Orlando","Country":"United States","Application Data":"Yes","Activeness Flag":"Unknown","latitude":"28.400787","longitude":"-81.380349"},{"Manufacturer":"Praxair Distribution, Inc.","Manufacturing Type":"Drug Product Manufacturer","Products":["Ethacrynate Sodium For Injection","Tranexamic Acid","Tranexamic Acid Injection"],"City":"Indiana","Country":"United States","Application Data":"Yes","Activeness Flag":"Unknown","latitude":"40.607608","longitude":"-79.173112"},{"Manufacturer":"Air Products and Chemicals, Inc.","Manufacturing Type":"Drug Product Manufacturer","Products":["Bacteriostatic Sodium Chloride Injection","Sodium Chloride","Sodium Chloride Injection"],"City":"Bellevue","Country":"United States","Application Data":"Yes","Activeness Flag":"Unknown","latitude":"47.636927","longitude":"-122.190955"},{"Manufacturer":"GLENMARK PHARMACEUTICALS LIMITED","Manufacturing Type":"Drug Product Manufacturer","Products":["Lanreotide Acetate","Lanreotide Injection"],"City":"Fitzgerald","Country":"United States","Application Data":"Yes","Activeness Flag":"Unknown","latitude":"31.708909","longitude":"-83.252923"},{"Manufacturer":"Formosa Laboratories, Inc.","Manufacturing Type":"Drug Product Manufacturer","Products":["Oxygen"],"City":"Fort Lauderdale","Country":"United States","Application Data":"Yes","Activeness Flag":"Unknown","latitude":"26.089896","longitude":"-80.396309"},{"Manufacturer":"Amneal Pharmaceuticals LLC","Manufacturing Type":"Drug Product Manufacturer","Products":["Salicylic Acid","Salicylic Acid Gel"],"City":"Waconia","Country":"United States","Application Data":"Yes","Activeness Flag":"Unknown","latitude":"44.843181","longitude":"-93.790828"},{"Manufacturer":"Linde Gas North America LLC","Manufacturing Type":"Drug Product Manufacturer","Products":["Amphetamine Sulfate","Amphetamine Sulfate Tablets","Chloroquine","Chloroquine Phosphate","Chloroquine Phosphate Tablets","Midodrine Hydrochloride","Midodrine Hydrochloride Tablets","Primaquine Phosphate","Primaquine Phosphate Tablets","Pyrimethamine","Pyrimethamine Tablets"],"City":"Dover","Country":"United States","Application Data":"Yes","Activeness Flag":"Unknown","latitude":"40.884719","longitude":"-74.558481"},{"Manufacturer":"Noramco, LLC","Manufacturing Type":"Drug Product Manufacturer","Products":["Colistimethate For Injection","Colistimethate Sodium","Colistin Sulfate","Collagenase Clostridium Histolyticum","Collagenase Clostridium Histolyticum For Injection","Dantrolene Sodium","Dantrolene Sodium For Injection","Epinephrine","Epinephrine Injection","Oxytocin","Oxytocin Injection","Sumatriptan","Sumatriptan Injection","Sumatriptan Succinate","Trimethobenzamide Hydrochloride","Trimethobenzamide Hydrochloride Injection","Verteporfin","Verteporfin For Injection"],"City":"Suffern","Country":"United States","Application Data":"Yes","Activeness Flag":"Unknown","latitude":"41.119894","longitude":"-74.130579"},{"Manufacturer":"Bausch & Lomb Pharmaceuticals, Inc.","Manufacturing Type":"Drug Product Manufacturer","Products":["Nitrogen","Nitrous Oxide","Oxygen"],"City":"Hammond","Country":"United States","Application Data":"Yes","Activeness Flag":"Unknown","latitude":"30.506523","longitude":"-90.415204"},{"Manufacturer":"Premier Oxygen, LLC","Manufacturing Type":"API Manufacturer","Products":["Carbidopa","Carbidopa And Levodopa Tablets","Levodopa"],"City":"Waco","Country":"United States","Application Data":"Yes","Activeness Flag":"Unknown","latitude":"31.547856","longitude":"-97.132534"},{"Manufacturer":"CIPLA LIMITED","Manufacturing Type":"Drug Product Manufacturer","Products":["Nitrogen"],"City":"Sunrise","Country":"United States","Application Data":"Yes","Activeness Flag":"Unknown","latitude":"26.123537","longitude":"-80.33636"},{"Manufacturer":"Wasserburger Arzneimittelwerk GmbH","Manufacturing Type":"Drug Product Manufacturer","Products":["Oxygen"],"City":"Draper","Country":"United States","Application Data":"Yes","Activeness Flag":"Unknown","latitude":"40.524883","longitude":"-111.903137"},{"Manufacturer":"Badger Welding Supplies, Inc.","Manufacturing Type":"Drug Product Manufacturer","Products":["Oxygen"],"City":"Lebanon","Country":"United States","Application Data":"Yes","Activeness Flag":"Unknown","latitude":"43.626358","longitude":"-72.23312"},{"Manufacturer":"Wright & Filippis, Inc.","Manufacturing Type":"Drug Product Manufacturer","Products":["Oxygen"],"City":"Lawton","Country":"United States","Application Data":"Yes","Activeness Flag":"Unknown","latitude":"34.59434","longitude":"-98.527665"},{"Manufacturer":"Remworks Sleep Store Inc.","Manufacturing Type":"Drug Product Manufacturer","Products":["Allopurinol","Allopurinol Tablets","Clindamycin Hydrochloride","Clindamycin Hydrochloride Capsules","Clindamycin Palmitate Hydrochloride","Diazepam","Diazepam Tablets","Glipizide","Glipizide Tablets","Hydrochlorothiazide","Hydrochlorothiazide Capsules","Hydrochlorothiazide Tablets","Nabumetone","Nabumetone Tablets","Nitrofurantoin","Nitrofurantoin Capsules","Nizatidine","Nizatidine Capsules","Nortriptyline Hydrochloride","Nortriptyline Hydrochloride Capsules","Probenecid","Probenecid Tablets","Promethazine Hydrochloride","Promethazine Hydrochloride Tablets","Sulindac","Sulindac Tablets","Triamterene","Triamterene And Hydrochlorothiazide Tablets","Ursodiol","Ursodiol Capsules"],"City":"Evansville","Country":"United States","Application Data":"Yes","Activeness Flag":"Unknown","latitude":"37.984018","longitude":"-87.566814"},{"Manufacturer":"INVENTIA HEALTHCARE LIMITED","Manufacturing Type":"Drug Product Manufacturer","Products":["Oxygen"],"City":"Cave City","Country":"United States","Application Data":"Yes","Activeness Flag":"Unknown","latitude":"37.114395","longitude":"-85.964239"},{"Manufacturer":"Ali-Rob, Inc.","Manufacturing Type":"Drug Product Manufacturer","Products":["Liothyronine Sodium","Liothyronine Sodium Tablets"],"City":"Pelham","Country":"United States","Application Data":"Yes","Activeness Flag":"Unknown","latitude":"31.1706","longitude":"-84.1482"},{"Manufacturer":"CADILA HEALTHCARE LIMITED","Manufacturing Type":"Drug Product Manufacturer","Products":["Carbon Dioxide","Helium","Nitrogen","Oxygen"],"City":"Pittsfield","Country":"United States","Application Data":"Yes","Activeness Flag":"Unknown","latitude":"42.443907","longitude":"-73.237764"},{"Manufacturer":"Fresenius Kabi Austria GmbH","Manufacturing Type":"Drug Product Manufacturer","Products":["Adenosine","Adenosine Injection","Amikacin","Amikacin Sulfate Injection","Etomidate","Etomidate Injection","Furosemide","Furosemide Injection","Metoclopramide Injection","Prochlorperazine","Prochlorperazine Edisylate","Prochlorperazine Edisylate Injection","Prochlorperazine Maleate","Tranexamic Acid","Tranexamic Acid Injection"],"City":"Rapid City","Country":"United States","Application Data":"Yes","Activeness Flag":"Unknown","latitude":"44.065328","longitude":"-103.193855"},{"Manufacturer":"Amerita, Inc.","Manufacturing Type":"Drug Product Manufacturer","Products":["Budesonide","Budesonide Extended-release Tablets","Mesalamine","Mesalamine Delayed-release Tablets","Mesalamine Suppositories"],"City":"Deville","Country":"United States","Application Data":"Yes","Activeness Flag":"Unknown","latitude":"31.328091","longitude":"-92.130975"},{"Manufacturer":"Crown Laboratories, Inc.","Manufacturing Type":"Drug Product Manufacturer","Products":["Vedolizumab","Vedolizumab For Injection"],"City":"Pittston","Country":"United States","Application Data":"Yes","Activeness Flag":"Unknown","latitude":"41.30572","longitude":"-75.774331"},{"Manufacturer":"Thornton Enterprises Inc","Manufacturing Type":"Drug Product Manufacturer","Products":["Nitrogen","Oxygen"],"City":"Texarkana","Country":"United States","Application Data":"Yes","Activeness Flag":"Unknown","latitude":"33.440602","longitude":"-94.017392"},{"Manufacturer":"Macco Organiques, s.r.o.","Manufacturing Type":"Drug Product Manufacturer","Products":["Nitrogen","Oxygen"],"City":"Corpus Christi","Country":"United States","Application Data":"Yes","Activeness Flag":"Unknown","latitude":"27.713239","longitude":"-97.388333"},{"Manufacturer":"Airway Oxygen, Inc.","Manufacturing Type":"Drug Product Manufacturer","Products":["Alprazolam","Alprazolam Extended-release Tablets","Alprazolam Tablets","Amlodipine And Atorvastatin Tablets","Amlodipine Besylate","Amlodipine Besylate Tablets","Atorvastatin Calcium","Atropine","Atropine Sulfate","Azithromycin","Azithromycin For Oral Suspension","Azithromycin Tablets","Celecoxib","Celecoxib Capsules","Diphenoxylate Hydrochloride","Diphenoxylate Hydrochloride And Atropine Sulfate Tablets","Dofetilide","Doxazosin Mesylate","Doxazosin Tablets","Fluconazole","Fluconazole For Oral Suspension","Fluconazole Tablets","Glipizide","Glipizide Extended-release Tablets","Glipizide Tablets","Hydrochlorothiazide","Linezolid","Nifedipine","Nifedipine Capsules","Nifedipine Extended-release Tablets","Piroxicam","Piroxicam Capsules","Prazosin Hydrochloride","Prazosin Hydrochloride Capsules","Sertraline Hydrochloride","Sertraline Hydrochloride Tablets","Sildenafil Citrate","Sildenafil Tablets","Spironolactone","Spironolactone And Hydrochlorothiazide Tablets","Tofacitinib Citrate","Tofacitinib Tablets","Triazolam","Triazolam Tablets"],"City":"Mason City","Country":"United States","Application Data":"Yes","Activeness Flag":"Unknown","latitude":"43.14809","longitude":"-93.204133"},{"Manufacturer":"Baycare Home Care, Inc.","Manufacturing Type":"Drug Product Manufacturer","Products":["Oxygen"],"City":"Midland","Country":"United States","Application Data":"Yes","Activeness Flag":"Unknown","latitude":"43.610151","longitude":"-84.190042"},{"Manufacturer":"Airgas Usa, LLC","Manufacturing Type":"Drug Product Manufacturer","Products":["Oxygen"],"City":"Mequon","Country":"United States","Application Data":"Yes","Activeness Flag":"Unknown","latitude":"43.207081","longitude":"-87.994699"},{"Manufacturer":"Vitae Enim Vitae Scientific Inc.","Manufacturing Type":"Drug Product Manufacturer","Products":["Zidovudine","Zidovudine Capsules"],"City":"Melrose Park","Country":"United States","Application Data":"Yes","Activeness Flag":"Unknown","latitude":"41.91248","longitude":"-87.869628"},{"Manufacturer":"The Pharmacy Counter LLC","Manufacturing Type":"Drug Product Manufacturer","Products":["Albuterol","Albuterol Sulfate","Albuterol Tablets","Amlodipine Besylate","Amlodipine Besylate Tablets","Aripiprazole","Aripiprazole Tablets","Azelastine Hydrochloride","Buspirone Hydrochloride","Buspirone Hydrochloride Tablets","Carbidopa","Carbidopa Tablets","Carisoprodol","Carisoprodol Tablets","Dofetilide","Doxepin Hydrochloride","Doxepin Hydrochloride Capsules","Droxidopa","Droxidopa Capsules","Eletriptan Hydrobromide","Eletriptan Tablets","Fluoxetine Capsules","Fluoxetine Tablets","Hydrochlorothiazide","Leflunomide","Leflunomide Tablets","Lisinopril","Lisinopril And Hydrochlorothiazide Tablets","Lisinopril Tablets","Losartan Potassium","Losartan Potassium Tablets","Memantine Hydrochloride","Memantine Hydrochloride Extended Release Capsules","Methocarbamol","Methocarbamol Tablets","Midodrine Hydrochloride","Midodrine Hydrochloride Tablets","Mirtazapine","Mirtazapine Tablets","Montelukast Sodium","Montelukast Sodium Oral Granules","Nifedipine","Nifedipine Extended-release Tablets","Nitrofurantoin","Nitrofurantoin Oral Suspension","Pilocarpine","Pilocarpine Hydrochloride","Pilocarpine Hydrochloride Tablets","Pilocarpine Nitrate","Potassium Chloride","Potassium Chloride Extended-release Tablets","Sertraline Hydrochloride","Sertraline Hydrochloride Tablets","Sevelamer Carbonate","Sevelamer Carbonate Tablets","Sevelamer Hydrochloride Tablets","Silodosin","Silodosin Capsules","Sulfamethoxazole","Sulfamethoxazole And Trimethoprim Oral Suspension","Tizanidine Capsules","Tizanidine Hydrochloride","Tramadol Hydrochloride","Tramadol Hydrochloride Tablets","Trimethoprim","Trimethoprim Sulfate","Valacyclovir Hydrochloride","Valacyclovir Tablets"],"City":"Elkhart","Country":"United States","Application Data":"Yes","Activeness Flag":"Unknown","latitude":"41.689326","longitude":"-85.943182"},{"Manufacturer":"Ews Welding Supply, Inc.","Manufacturing Type":"API Manufacturer","Products":["Fluoxetine Capsules","Insulin Lispro","Insulin Lispro Injection","Prasugrel Hydrochloride","Prasugrel Tablets","Tadalafil","Tadalafil Tablets"],"City":"Star","Country":"United States","Application Data":"Yes","Activeness Flag":"Unknown","latitude":"32.0938","longitude":"-90.0461"},{"Manufacturer":"Messer LLC","Manufacturing Type":"API Manufacturer","Products":["Azithromycin","Azithromycin For Injection","Progesterone"],"City":"Chicago","Country":"United States","Application Data":"Yes","Activeness Flag":"Unknown","latitude":"41.876215","longitude":"-87.626079"},{"Manufacturer":"Triweld Industries, Inc.","Manufacturing Type":"Drug Product Manufacturer","Products":["Oxygen"],"City":"Danville","Country":"United States","Application Data":"Yes","Activeness Flag":"Unknown","latitude":"40.1336","longitude":"-87.619023"},{"Manufacturer":"RECIPHARM FONTAINE","Manufacturing Type":"Drug Product Manufacturer","Products":["Oxygen"],"City":"Los Angeles","Country":"United States","Application Data":"Yes","Activeness Flag":"Unknown","latitude":"33.927329","longitude":"-118.225302"},{"Manufacturer":"Carlsbad Technology Inc.","Manufacturing Type":"Drug Product Manufacturer","Products":["Bedaquiline Fumarate","Bedaquiline Tablets","Brinzolamide","Brinzolamide Ophthalmic Suspension"],"City":"Snyder","Country":"United States","Application Data":"Yes","Activeness Flag":"Unknown","latitude":"32.730432","longitude":"-100.918168"},{"Manufacturer":"PIRAMAL HEALTHCARE UK LIMITED","Manufacturing Type":"Drug Product Manufacturer","Products":["Nitrogen"],"City":"Hillside","Country":"United States","Application Data":"Yes","Activeness Flag":"Unknown","latitude":"41.862433","longitude":"-87.915005"},{"Manufacturer":"CELLTRION PHARM, INC","Manufacturing Type":"Drug Product Manufacturer","Products":["Halobetasol Propionate","Sevoflurane","Triamcinolone","Triamcinolone Acetonide","Triamcinolone Acetonide Topical Aerosol"],"City":"Ghent","Country":"United States","Application Data":"Yes","Activeness Flag":"Unknown","latitude":"38.729919","longitude":"-85.074118"},{"Manufacturer":"CADILA PHARMACEUTICALS LIMITED","Manufacturing Type":"Drug Product Manufacturer","Products":["Budesonide","Budesonide Delayed-release Capsules","Metoprolol Fumarate","Metoprolol Succinate","Metoprolol Succinate Extended-release Capsules","Metoprolol Succinate Extended-release Tablets"],"City":"Portage","Country":"United States","Application Data":"Yes","Activeness Flag":"Unknown","latitude":"42.242814","longitude":"-85.560042"},{"Manufacturer":"Cole Care, Inc.","Manufacturing Type":"Drug Product Manufacturer","Products":["Doxepin Hydrochloride","Doxepin Hydrochloride Capsules"],"City":"Houston","Country":"United States","Application Data":"Yes","Activeness Flag":"Unknown","latitude":"29.771707","longitude":"-95.3759"},{"Manufacturer":"Airgas Usa, LLC","Manufacturing Type":"Drug Product Manufacturer","Products":["Acetaminophen","Aspirin","Azathioprine","Azathioprine Tablets","Bretylium Tosylate","Bretylium Tosylate Injection","Butalbital","Butalbital, Acetaminophen, And Caffeine Tablets","Butalbital, Aspirin, And Caffeine Tablets","Caffeine","Clozapine","Clozapine Oral Suspension","Dronabinol","Dronabinol Capsules","Drospirenone","Drospirenone And Ethinyl Estradiol Tablets","Estradiol","Estradiol Acetate","Estradiol And Norethindrone Acetate Tablets","Ethinyl Estradiol","Fentanyl","Fentanyl Citrate","Fentanyl Sublingual Tablets","Hydrocortisone","Hydrocortisone Hemisuccinate","Hydrocortisone Sodium Succinate","Hydrocortisone Tablets","Megestrol Acetate","Megestrol Acetate Oral Suspension","Norethindrone","Norethindrone Acetate","Oxandrolone","Oxandrolone Tablets","Piroxicam","Piroxicam Capsules","Progesterone","Spinosad","Testosterone","Testosterone Cypionate"],"City":"Glendale","Country":"United States","Application Data":"Yes","Activeness Flag":"Unknown","latitude":"33.516769","longitude":"-112.171638"},{"Manufacturer":"J T W Inc","Manufacturing Type":"Drug Product Manufacturer","Products":["Enzalutamide","Enzalutamide Capsules"],"City":"Saint Louis","Country":"United States","Application Data":"Yes","Activeness Flag":"Unknown","latitude":"38.622746","longitude":"-90.286079"},{"Manufacturer":"Airgas Usa, LLC","Manufacturing Type":"Drug Product Manufacturer","Products":["Nitrogen"],"City":"Macon","Country":"United States","Application Data":"Yes","Activeness Flag":"Unknown","latitude":"32.814063","longitude":"-83.562692"},{"Manufacturer":"CIPLA LIMITED","Manufacturing Type":"Drug Product Manufacturer","Products":["Oxygen"],"City":"Sheffield","Country":"United States","Application Data":"Yes","Activeness Flag":"Unknown","latitude":"34.758836","longitude":"-87.69848"},{"Manufacturer":"Purepoint Inc","Manufacturing Type":"Drug Product Manufacturer","Products":["Clarithromycin","Clarithromycin Extended-release Tablets","Trospium Chloride","Valganciclovir For Oral Solution","Valganciclovir Hydrochloride"],"City":"American Fork","Country":"United States","Application Data":"Yes","Activeness Flag":"Unknown","latitude":"40.37675","longitude":"-111.797802"},{"Manufacturer":"B&K Prescription Shop, Inc.","Manufacturing Type":"API Manufacturer","Products":["Imipramine Hydrochloride","Imipramine Hydrochloride Tablets"],"City":"North Little Rock","Country":"United States","Application Data":"Yes","Activeness Flag":"Unknown","latitude":"34.805095","longitude":"-92.348635"},{"Manufacturer":"DELTA SYNTHETIC CO., LTD.","Manufacturing Type":"Drug Product Manufacturer","Products":["Oxygen"],"City":"Charleston","Country":"United States","Application Data":"Yes","Activeness Flag":"Unknown","latitude":"32.862734","longitude":"-80.048501"},{"Manufacturer":"Airgas Usa, LLC","Manufacturing Type":"Drug Product Manufacturer","Products":["Nitrogen","Oxygen"],"City":"Columbia","Country":"United States","Application Data":"Yes","Activeness Flag":"Unknown","latitude":"33.968593","longitude":"-81.003152"},{"Manufacturer":"Ascension Via Christi Home Medical Wichita, LLC","Manufacturing Type":"Drug Product Manufacturer","Products":["Oxygen"],"City":"Portland","Country":"United States","Application Data":"Yes","Activeness Flag":"Unknown","latitude":"45.533647","longitude":"-122.59742"},{"Manufacturer":"R C P S Inc.","Manufacturing Type":"Drug Product Manufacturer","Products":["Nitrous Oxide"],"City":"Farmington","Country":"United States","Application Data":"Yes","Activeness Flag":"Unknown","latitude":"36.736093","longitude":"-108.181382"},{"Manufacturer":"Airgas Usa, LLC","Manufacturing Type":"Drug Product Manufacturer","Products":["Oxygen"],"City":"Allegan","Country":"United States","Application Data":"Yes","Activeness Flag":"Unknown","latitude":"42.52757","longitude":"-85.836362"},{"Manufacturer":"Founders Healthcare, L.L.C.","Manufacturing Type":"Drug Product Manufacturer","Products":["Amphetamine Sulfate","Amphetamine Sulfate Tablets","Ketoconazole","Ketoconazole Tablets"],"City":"Saint Louis","Country":"United States","Application Data":"Yes","Activeness Flag":"Unknown","latitude":"38.615874","longitude":"-90.335551"},{"Manufacturer":"Emergent Manufacturing Operations Baltimore LLC","Manufacturing Type":"Drug Product Manufacturer","Products":["Nitrogen","Nitrous Oxide","Oxygen"],"City":"Vero Beach","Country":"United States","Application Data":"Yes","Activeness Flag":"Unknown","latitude":"27.60732","longitude":"-80.387962"},{"Manufacturer":"Airgas Usa, LLC","Manufacturing Type":"API Manufacturer","Products":["Oxygen"],"City":"Brookhaven","Country":"United States","Application Data":"Yes","Activeness Flag":"Unknown","latitude":"31.59929","longitude":"-90.43037"},{"Manufacturer":"Sun Pharmaceutical Industries, Inc.","Manufacturing Type":"Drug Product Manufacturer","Products":["Oxygen"],"City":"Urbana","Country":"United States","Application Data":"Yes","Activeness Flag":"Unknown","latitude":"40.127432","longitude":"-88.218284"},{"Manufacturer":"Innogenix, LLC","Manufacturing Type":"Drug Product Manufacturer","Products":["Nitrogen","Oxygen"],"City":"Pauls Valley","Country":"United States","Application Data":"Yes","Activeness Flag":"Unknown","latitude":"34.738894","longitude":"-97.217671"},{"Manufacturer":"Respiratory Home Care Specialists, Inc","Manufacturing Type":"Drug Product Manufacturer","Products":["Nitroglycerin Lingual Spray"],"City":"Tupelo","Country":"United States","Application Data":"Yes","Activeness Flag":"Unknown","latitude":"34.234501","longitude":"-88.722095"},{"Manufacturer":"Matheson Tri-Gas, Inc.","Manufacturing Type":"Drug Product Manufacturer","Products":["Cyclosporine"],"City":"Rockford","Country":"United States","Application Data":"Yes","Activeness Flag":"Unknown","latitude":"42.216728","longitude":"-89.025844"},{"Manufacturer":"Banner Health","Manufacturing Type":"Drug Product Manufacturer","Products":["Oxygen"],"City":"North Royalton","Country":"United States","Application Data":"Yes","Activeness Flag":"Unknown","latitude":"41.309311","longitude":"-81.755123"},{"Manufacturer":"Del Rio Welders Equipment Inc","Manufacturing Type":"Drug Product Manufacturer","Products":["Bicalutamide","Bicalutamide Tablets","Rosuvastatin Calcium","Rosuvastatin Tablets"],"City":"Mukilteo","Country":"United States","Application Data":"Yes","Activeness Flag":"Unknown","latitude":"47.892485","longitude":"-122.294918"},{"Manufacturer":"Airgas Usa, LLC","Manufacturing Type":"Drug Product Manufacturer","Products":["Oxygen"],"City":"Erie","Country":"United States","Application Data":"Yes","Activeness Flag":"Unknown","latitude":"42.112203","longitude":"-80.099608"},{"Manufacturer":"Mount Vernon Community Pharmacy Inc","Manufacturing Type":"Drug Product Manufacturer","Products":["Nitrogen"],"City":"Maple Grove","Country":"United States","Application Data":"Yes","Activeness Flag":"Unknown","latitude":"45.0745","longitude":"-93.441901"},{"Manufacturer":"CRYSTAL PHARMA SAU","Manufacturing Type":"Drug Product Manufacturer","Products":["Oxygen"],"City":"Terrell","Country":"United States","Application Data":"Yes","Activeness Flag":"Unknown","latitude":"32.726452","longitude":"-96.276755"},{"Manufacturer":"Manuel Enterprises, Inc.","Manufacturing Type":"Drug Product Manufacturer","Products":["Ceftazidime","Ceftazidime For Injection","Ceftazidime Injection"],"City":"Oak Creek","Country":"United States","Application Data":"Yes","Activeness Flag":"Unknown","latitude":"42.857701","longitude":"-87.924428"},{"Manufacturer":"Fresenius Kabi Austria GmbH","Manufacturing Type":"Drug Product Manufacturer","Products":["Oxygen"],"City":"Cockeysville","Country":"United States","Application Data":"Yes","Activeness Flag":"Unknown","latitude":"39.477782","longitude":"-76.650069"},{"Manufacturer":"Tulex Pharmaceuticals Inc.","Manufacturing Type":"Drug Product Manufacturer","Products":["Nitrogen","Oxygen"],"City":"Salt Lake City","Country":"United States","Application Data":"Yes","Activeness Flag":"Unknown","latitude":"40.747428","longitude":"-111.938935"},{"Manufacturer":"Airgas Usa, LLC","Manufacturing Type":"Drug Product Manufacturer","Products":["Nitrogen"],"City":"Lubbock","Country":"United States","Application Data":"Yes","Activeness Flag":"Unknown","latitude":"33.610473","longitude":"-101.861906"},{"Manufacturer":"Jiangsu Hengrui Medicine Co., Ltd. Preparations No.2 Factory","Manufacturing Type":"API Manufacturer","Products":["Azilsartan Medoxomil","Azilsartan Medoxomil And Chlorthalidone Tablets","Azilsartan Medoxomil Tablets","Chlorthalidone","Dexlansoprazole","Dexlansoprazole Delayed-release Capsules"],"City":"Coatesville","Country":"United States","Application Data":"Yes","Activeness Flag":"Unknown","latitude":"39.9806","longitude":"-75.8262"},{"Manufacturer":"Air Products and Chemicals, Inc.","Manufacturing Type":"Drug Product Manufacturer","Products":["Memantine Hydrochloride","Memantine Hydrochloride Tablets"],"City":"Williston","Country":"United States","Application Data":"Yes","Activeness Flag":"Unknown","latitude":"44.44436","longitude":"-73.131985"},{"Manufacturer":"Nucare Pharmaceuticals, Inc.","Manufacturing Type":"API Manufacturer","Products":["Alprazolam","Alprazolam Extended-release Tablets","Alprazolam Tablets","Bazedoxifene Acetate","Conjugated Estrogens","Conjugated Estrogens And Bazedoxifene Tablets","Conjugated Estrogens Tablets","Desvenlafaxine","Desvenlafaxine Extended-release Tablets","Desvenlafaxine Succinate","Propranolol Hydrochloride","Propranolol Hydrochloride Extended-release Capsules","Sirolimus","Triazolam","Triazolam Tablets","Venlafaxine Hydrochloride","Venlafaxine Hydrochloride Extended-release Capsules","Ziprasidone Capsules","Ziprasidone Hydrochloride"],"City":"Toledo","Country":"United States","Application Data":"Yes","Activeness Flag":"Unknown","latitude":"41.721429","longitude":"-83.572994"},{"Manufacturer":"Air Liquide America Specialty Gases LLC","Manufacturing Type":"Drug Product Manufacturer","Products":["Oxygen"],"City":"Springfield","Country":"United States","Application Data":"Yes","Activeness Flag":"Unknown","latitude":"42.149418","longitude":"-72.529404"},{"Manufacturer":"SUIR PHARMA IRELAND LIMITED","Manufacturing Type":"Drug Product Manufacturer","Products":["Oxygen"],"City":"Pittsburgh","Country":"United States","Application Data":"Yes","Activeness Flag":"Unknown","latitude":"40.441892","longitude":"-80.002864"},{"Manufacturer":"Qol Medical","Manufacturing Type":"Drug Product Manufacturer","Products":["Acetazolamide","Acetazolamide Extended-release Capsules","Duloxetine Delayed-release Capsules","Duloxetine Hydrochloride","Indomethacin","Indomethacin Extended-release Capsules","Indomethacin Sodium","Minocycline Hydrochloride","Minocycline Hydrochloride Extended-release Tablets","Mycophenolate Mofetil","Mycophenolate Mofetil Capsules","Mycophenolate Mofetil Tablets","Piroxicam","Piroxicam Capsules","Zolmitriptan","Zolmitriptan Tablets"],"City":"Columbus","Country":"United States","Application Data":"Yes","Activeness Flag":"Unknown","latitude":"39.971295","longitude":"-83.108657"},{"Manufacturer":"Patheon Manufacturing Services LLC","Manufacturing Type":"Drug Product Manufacturer","Products":["Sodium Fluoride","Stannous Fluoride","Stannous Fluoride Gel"],"City":"Boston","Country":"United States","Application Data":"Yes","Activeness Flag":"Unknown","latitude":"42.353284","longitude":"-71.057259"},{"Manufacturer":"PANACEA BIOTEC LIMITED","Manufacturing Type":"Drug Product Manufacturer","Products":["Clonidine","Clonidine Transdermal System","Fentanyl","Fentanyl Citrate","Fentanyl Transdermal System","Methylphenidate Hydrochloride","Methylphenidate Hydrochloride Extended-release Tablets","Oxybutynin Chloride","Oxybutynin Chloride Extended-release Tablets","Paliperidone","Paliperidone Extended-release Tablets"],"City":"Grants","Country":"United States","Application Data":"Yes","Activeness Flag":"Unknown","latitude":"35.154806","longitude":"-107.818311"},{"Manufacturer":"Metro Welding Supply Corporation","Manufacturing Type":"Drug Product Manufacturer","Products":["Nitrogen","Oxygen"],"City":"Jacksonville","Country":"United States","Application Data":"Yes","Activeness Flag":"Unknown","latitude":"34.749574","longitude":"-77.423118"},{"Manufacturer":"Airgas Usa, LLC","Manufacturing Type":"Drug Product Manufacturer","Products":["Mometasone Furoate"],"City":"Billerica","Country":"United States","Application Data":"Yes","Activeness Flag":"Unknown","latitude":"42.514998","longitude":"-71.241228"},{"Manufacturer":"Kindeva Drug Delivery L.P.","Manufacturing Type":"Drug Product Manufacturer","Products":["Brimonidine Tartrate","Brimonidine Tartrate Ophthalmic Solution"],"City":"Salt Lake City","Country":"United States","Application Data":"Yes","Activeness Flag":"Unknown","latitude":"40.627205","longitude":"-111.824797"},{"Manufacturer":"West-Ward Columbus Inc","Manufacturing Type":"Drug Product Manufacturer","Products":["Acetaminophen","Acetazolamide","Acetazolamide For Injection","Adenosine","Adenosine Injection","Ampicillin","Ampicillin And Sulbactam For Injection","Ampicillin Sodium","Azithromycin","Azithromycin For Injection","Baclofen","Baclofen Injection","Benzoyl Peroxide Gel","Caspofungin Acetate","Caspofungin For Injection","Clindamycin And Benzoyl Peroxide Topical Gel","Clindamycin For Injection","Clindamycin Hydrochloride","Clindamycin Injection","Clindamycin Palmitate Hydrochloride","Clindamycin Phosphate Topical Solution","Clobetasol Propionate","Clofarabine","Clofarabine Injection","Cyanocobalamin","Cyanocobalamin Injection","Cytarabine","Cytarabine For Injection","Dactinomycin","Dactinomycin For Injection","Daptomycin","Daptomycin For Injection","Dexmedetomidine Injection","Dexpanthenol","Docetaxel","Docetaxel Injection","Doxycycline","Doxycycline For Injection","Doxycycline Hyclate","Doxylamine Succinate","Doxylamine Succinate And Pyridoxine Hydrochloride Delayed-release Tablets","Eptifibatide","Esmolol Hydrochloride","Esmolol Hydrochloride Injection","Esomeprazole Magnesium","Esomeprazole Sodium","Esomeprazole Sodium For Injection","Ethinyl Estradiol","Ethinyl Estradiol Tablets","Etomidate","Etomidate Injection","Famotidine","Famotidine Injection","Flumazenil","Flumazenil Injection","Fluphenazine Decanoate","Fluphenazine Enanthate","Fluphenazine Hydrochloride Injection","Fosaprepitant Dimeglumine","Fosaprepitant For Injection","Fosphenytoin Sodium","Fosphenytoin Sodium Injection","Gemcitabine For Injection","Gemcitabine Hydrochloride","Granisetron","Granisetron Hydrochloride","Granisetron Hydrochloride Injection","Haloperidol","Haloperidol Decanoate","Haloperidol Injection","Heparin Sodium","Heparin Sodium Injection","Leucovorin Calcium","Leucovorin Calcium For Injection","Leucovorin Calcium Injection","Levonorgestrel","Levonorgestrel And Ethinyl Estradiol Tablets","Linezolid","Medroxyprogesterone Acetate","Medroxyprogesterone Acetate Injectable Suspension","Mitomycin","Mitomycin For Injection","Moxifloxacin Hydrochloride","Moxifloxacin In Sodium Chloride Injection","Niacinamide","Norepinephrine Bitartrate","Norepinephrine Bitartrate Injection","Pamidronate Disodium","Pamidronate Disodium For Injection","Paricalcitol","Paricalcitol Injection","Prochlorperazine","Prochlorperazine Edisylate","Prochlorperazine Edisylate Injection","Prochlorperazine Maleate","Pyridoxine Hydrochloride","Riboflavin","Rifampin","Rifampin For Injection","Sildenafil Citrate","Sildenafil Tablets","Sodium Nitroprusside","Sulbactam Sodium","Sulfamethoxazole","Sulfamethoxazole And Trimethoprim Injection","Tobramycin","Tobramycin Injection","Tobramycin Sulfate","Topotecan For Injection","Topotecan Hydrochloride","Topotecan Injection","Trimethoprim","Trimethoprim Sulfate","Vancomycin","Vancomycin Hydrochloride","Vancomycin Hydrochloride For Injection","Vancomycin Injection","Vecuronium Bromide","Vecuronium Bromide For Injection","Zoledronic Acid","Zoledronic Acid Injection"],"City":"McAllen","Country":"United States","Application Data":"Yes","Activeness Flag":"Unknown","latitude":"26.207359","longitude":"-98.245138"},{"Manufacturer":"Oakwood Laboratories, L.L.C.","Manufacturing Type":"API Manufacturer","Products":["Adapalene","Adapalene  Cream","Adapalene And Benzoyl Peroxide Gel","Adapalene Gel","Brimonidine Topical Gel","Calcitriol","Calcitriol Ointment","Clobetasol Propionate","Clobetasol Propionate Lotion","Desonide","Desonide Cream","Desonide Lotion","Fluocinolone Acetonide","Fluocinolone Acetonide, Hydroquinone And Tretinoin Cream","Hydroquinone","Ivermectin","Ivermectin Cream","Metronidazole","Metronidazole Benzoate","Tretinoin","Trifarotene"],"City":"Santa Fe Springs","Country":"United States","Application Data":"Yes","Activeness Flag":"Unknown","latitude":"33.959722","longitude":"-118.065662"},{"Manufacturer":"Messer LLC","Manufacturing Type":"Drug Product Manufacturer","Products":["Oxygen"],"City":"Fort Worth","Country":"United States","Application Data":"Yes","Activeness Flag":"Unknown","latitude":"32.790452","longitude":"-97.219863"},{"Manufacturer":"Ipr Pharmaceuticals, Inc.","Manufacturing Type":"Drug Product Manufacturer","Products":["Oxygen"],"City":"Elyria","Country":"United States","Application Data":"Yes","Activeness Flag":"Unknown","latitude":"41.363398","longitude":"-82.073588"},{"Manufacturer":"American Antibiotics LLC","Manufacturing Type":"Drug Product Manufacturer","Products":["Nitrogen","Oxygen"],"City":"Burnsville","Country":"United States","Application Data":"Yes","Activeness Flag":"Unknown","latitude":"44.786563","longitude":"-93.261191"},{"Manufacturer":"Shl Pharma LLC","Manufacturing Type":"Drug Product Manufacturer","Products":["Ascorbic Acid","Cyanocobalamin","Ferrous Fumarate","Folic Acid"],"City":"Elmsford","Country":"United States","Application Data":"Yes","Activeness Flag":"Unknown","latitude":"41.0634","longitude":"-73.8179"},{"Manufacturer":"Airgas Usa, LLC","Manufacturing Type":"Drug Product Manufacturer","Products":["Dinoprostone"],"City":"Nashville","Country":"United States","Application Data":"Yes","Activeness Flag":"Unknown","latitude":"36.151352","longitude":"-86.77253"},{"Manufacturer":"IPSEN BIOPHARM LIMITED","Manufacturing Type":"Drug Product Manufacturer","Products":["Nitrogen","Oxygen"],"City":"Beloit","Country":"United States","Application Data":"Yes","Activeness Flag":"Unknown","latitude":"42.506251","longitude":"-89.037193"},{"Manufacturer":"Tom W Murray","Manufacturing Type":"Drug Product Manufacturer","Products":["Articaine Hydrochloride","Articaine Hydrochloride And Epinephrine Injection","Bupivacaine","Bupivacaine Hydrochloride","Bupivacaine Hydrochloride And Epinephrine Injection","Dyclonine Hydrochloride","Dyclonine Hydrochloride Topical Solution","Epinephrine","Levonordefrin","Lidocaine","Lidocaine Hydrochloride","Lidocaine Hydrochloride And Epinephrine Injection","Lidocaine Ointment","Mepivacaine Hydrochloride","Mepivacaine Hydrochloride And Levonordefrin Injection","Mepivacaine Hydrochloride Injection","Phentolamine Mesylate","Prilocaine","Prilocaine And Epinephrine Injection","Prilocaine Hydrochloride","Prilocaine Hydrochloride Injection"],"City":"Kent","Country":"United States","Application Data":"Yes","Activeness Flag":"Unknown","latitude":"47.402645","longitude":"-122.232329"},{"Manufacturer":"Southern Gas & Supply LLC","Manufacturing Type":"Drug Product Manufacturer","Products":["Nitrogen"],"City":"Charlotte","Country":"United States","Application Data":"Yes","Activeness Flag":"Unknown","latitude":"35.168156","longitude":"-80.947574"},{"Manufacturer":"BIOCON LIMITED","Manufacturing Type":"Drug Product Manufacturer","Products":["Nitrofurantoin","Nitrofurantoin Capsules"],"City":"Spokane","Country":"United States","Application Data":"Yes","Activeness Flag":"Unknown","latitude":"47.690105","longitude":"-117.368169"},{"Manufacturer":"HARMAN FINOCHEM LIMITED","Manufacturing Type":"Drug Product Manufacturer","Products":["Nitrogen"],"City":"Rochester","Country":"United States","Application Data":"Yes","Activeness Flag":"Unknown","latitude":"44.03364","longitude":"-92.50071"},{"Manufacturer":"Airgas Usa, LLC","Manufacturing Type":"Drug Product Manufacturer","Products":["Oxygen"],"City":"Carnegie","Country":"United States","Application Data":"Yes","Activeness Flag":"Unknown","latitude":"40.418239","longitude":"-80.072523"},{"Manufacturer":"Kenric, Inc","Manufacturing Type":"Drug Product Manufacturer","Products":["Acetaminophen","Acetaminophen And Codeine Phosphate Tablets","Alprazolam","Alprazolam Extended-release Tablets","Amlodipine Besylate","Amlodipine Besylate Tablets","Codeine","Codeine Phosphate","Demeclocycline","Demeclocycline Hydrochloride","Demeclocycline Hydrochloride Tablets","Esterified Estrogens","Hydrocodone Bitartrate","Hydrocodone Bitartrate And Acetaminophen Tablets","Ibuprofen","Ibuprofen Lysine","Ibuprofen Tablets","Lorazepam","Lorazepam Tablets","Meclizine Hydrochloride","Meclizine Hydrochloride Tablets","Metformin Hydrochloride","Metformin Hydrochloride Tablets","Methyltestosterone","Naproxen","Naproxen Sodium","Naproxen Sodium Tablets","Naproxen Tablets","Oxycodone And Acetaminophen Tablets","Oxycodone Hydrochloride","Phenazopyridine Hydrochloride","Phenazopyridine Hydrochloride Tablets","Salsalate","Salsalate Tablets","Sulfamethoxazole","Sulfamethoxazole And Trimethoprim Tablets","Tramadol Hydrochloride","Tramadol Hydrochloride Tablets","Trimethoprim","Trimethoprim Sulfate"],"City":"Rancho Cordova","Country":"United States","Application Data":"Yes","Activeness Flag":"Unknown","latitude":"38.5891","longitude":"-121.3016"},{"Manufacturer":"Messer LLC","Manufacturing Type":"Drug Product Manufacturer","Products":["Carbon Dioxide","Helium","Nitrogen","Nitrous Oxide","Oxygen"],"City":"Bluefield","Country":"United States","Application Data":"Yes","Activeness Flag":"Unknown","latitude":"37.281374","longitude":"-81.249443"},{"Manufacturer":"EUSA PHARMA (UK) LIMITED","Manufacturing Type":"Drug Product Manufacturer","Products":["Bacitracin","Neomycin And Polymyxin B Sulfates And Bacitracin Ophthalmic Ointment","Neomycin And Polymyxin B Sulfates And Bacitracin Zinc Ophthalmic Ointment"],"City":"Palm Desert","Country":"United States","Application Data":"Yes","Activeness Flag":"Unknown","latitude":"33.721559","longitude":"-116.368098"},{"Manufacturer":"Vetter Pharma-Fertigung GmbH & Co. KG","Manufacturing Type":"Drug Product Manufacturer","Products":["Amoxicillin","Amoxicillin And Clavulanate Potassium For Oral Suspension","Amoxicillin And Clavulanate Potassium Tablets","Amoxicillin And Clavulanic Acid Extended-release Tablets","Clavulanate Potassium"],"City":"Springfield","Country":"United States","Application Data":"Yes","Activeness Flag":"Unknown","latitude":"37.189925","longitude":"-93.325383"},{"Manufacturer":"Airgas Usa, LLC","Manufacturing Type":"Drug Product Manufacturer","Products":["Carbon Dioxide","Helium","Nitrous Oxide","Oxygen"],"City":"Albuquerque","Country":"United States","Application Data":"Yes","Activeness Flag":"Unknown","latitude":"35.14775","longitude":"-106.596327"},{"Manufacturer":"SOCIETA' ITALIANA MEDICINALI SCANDICCI S.I.M.S. SRL","Manufacturing Type":"API Manufacturer","Products":["Nitrogen","Oxygen"],"City":"Lincoln","Country":"United States","Application Data":"Yes","Activeness Flag":"Unknown","latitude":"40.853161","longitude":"-96.654064"},{"Manufacturer":"Ascent Pharmaceuticals Inc.","Manufacturing Type":"Drug Product Manufacturer","Products":["Hydroquinone","Hydroquinone Cream"],"City":"Dayton","Country":"United States","Application Data":"Yes","Activeness Flag":"Unknown","latitude":"40.36096","longitude":"-74.493893"},{"Manufacturer":"Messer LLC","Manufacturing Type":"Drug Product Manufacturer","Products":["Nitrogen","Oxygen"],"City":"Louisville","Country":"United States","Application Data":"Yes","Activeness Flag":"Unknown","latitude":"38.304653","longitude":"-85.522863"},{"Manufacturer":"Airgas Usa, LLC","Manufacturing Type":"Drug Product Manufacturer","Products":["Nitrogen","Oxygen"],"City":"Morgantown","Country":"United States","Application Data":"Yes","Activeness Flag":"Unknown","latitude":"39.657967","longitude":"-79.959073"},{"Manufacturer":"Kindeva Drug Delivery L.P.","Manufacturing Type":"Drug Product Manufacturer","Products":["Azithromycin","Azithromycin For Injection","Pregabalin","Pregabalin Capsules"],"City":"Piscataway","Country":"United States","Application Data":"Yes","Activeness Flag":"Unknown","latitude":"40.552197","longitude":"-74.475127"},{"Manufacturer":"Irisys, Inc.","Manufacturing Type":"Drug Product Manufacturer","Products":["Oxygen"],"City":"North Chicago","Country":"United States","Application Data":"Yes","Activeness Flag":"Unknown","latitude":"42.333911","longitude":"-87.838561"},{"Manufacturer":"Air Products and Chemicals, Inc.","Manufacturing Type":"Drug Product Manufacturer","Products":["Nitrogen","Oxygen"],"City":"Hialeah","Country":"United States","Application Data":"Yes","Activeness Flag":"Unknown","latitude":"25.895904","longitude":"-80.336161"},{"Manufacturer":"SANDOZ SRL","Manufacturing Type":"Drug Product Manufacturer","Products":["Oxygen"],"City":"Salem","Country":"United States","Application Data":"Yes","Activeness Flag":"Unknown","latitude":"42.775906","longitude":"-71.262753"},{"Manufacturer":"Praxair Distribution, Inc.","Manufacturing Type":"Drug Product Manufacturer","Products":["Cabazitaxel","Cabazitaxel Injection","Docetaxel","Docetaxel Injection"],"City":"Denison","Country":"United States","Application Data":"Yes","Activeness Flag":"Unknown","latitude":"33.715284","longitude":"-96.562073"},{"Manufacturer":"Boggs Fire Equipment, Inc.","Manufacturing Type":"Drug Product Manufacturer","Products":["Methocarbamol","Methocarbamol Tablets"],"City":"Yakima","Country":"United States","Application Data":"Yes","Activeness Flag":"Unknown","latitude":"46.616532","longitude":"-120.530363"},{"Manufacturer":"MIPHARM SPA","Manufacturing Type":"Drug Product Manufacturer","Products":["Doxycycline","Doxycycline Hyclate","Doxycycline Hyclate Tablets","Doxycycline Tablets","Gemfibrozil","Gemfibrozil Tablets","Simvastatin","Simvastatin Tablets"],"City":"Monmouth Junction","Country":"United States","Application Data":"Yes","Activeness Flag":"Unknown","latitude":"40.3902","longitude":"-74.549"},{"Manufacturer":"Premier Medical Distribution LLC","Manufacturing Type":"Drug Product Manufacturer","Products":["Carbon Dioxide","Nitrogen","Nitrous Oxide","Oxygen"],"City":"Chattanooga","Country":"United States","Application Data":"Yes","Activeness Flag":"Unknown","latitude":"35.00245","longitude":"-85.292419"},{"Manufacturer":"Humco Holding Group, Inc.","Manufacturing Type":"Drug Product Manufacturer","Products":["Lidocaine","Lidocaine Ointment"],"City":"Hauppauge","Country":"United States","Application Data":"Yes","Activeness Flag":"Unknown","latitude":"40.81071","longitude":"-73.242454"},{"Manufacturer":"Genentech, Inc.","Manufacturing Type":"Drug Product Manufacturer","Products":["Nitrogen","Oxygen"],"City":"Mesa","Country":"United States","Application Data":"Yes","Activeness Flag":"Unknown","latitude":"33.29185","longitude":"-111.584865"},{"Manufacturer":"Airgas Usa, LLC","Manufacturing Type":"Drug Product Manufacturer","Products":["Oxygen"],"City":"Philadelphia","Country":"United States","Application Data":"Yes","Activeness Flag":"Unknown","latitude":"40.063248","longitude":"-75.072925"},{"Manufacturer":"Regency Medical Equipment, Inc.","Manufacturing Type":"API Manufacturer","Products":["Nitrogen"],"City":"Uvalde","Country":"United States","Application Data":"Yes","Activeness Flag":"Unknown","latitude":"29.233583","longitude":"-99.752305"},{"Manufacturer":"Hikma Pharmaceuticals USA Inc.","Manufacturing Type":"Drug Product Manufacturer","Products":["Propofol","Propofol Injectable Emulsion"],"City":"Lakeland","Country":"United States","Application Data":"Yes","Activeness Flag":"Unknown","latitude":"27.997836","longitude":"-82.017159"},{"Manufacturer":"Steri-Pharma, LLC","Manufacturing Type":"Drug Product Manufacturer","Products":["Dimethyl Isosorbide","Isosorbide Mononitrate Extended-release Tablets","Oxycodone Hydrochloride","Oxycodone Hydrochloride Tablets"],"City":"Parsippany","Country":"United States","Application Data":"Yes","Activeness Flag":"Unknown","latitude":"40.868447","longitude":"-74.443727"},{"Manufacturer":"Airgas Usa, LLC","Manufacturing Type":"Drug Product Manufacturer","Products":["Oxygen"],"City":"Salt Lake City","Country":"United States","Application Data":"Yes","Activeness Flag":"Unknown","latitude":"40.756494","longitude":"-111.824931"},{"Manufacturer":"Industrial Welding & Tool Supply, Ltd.","Manufacturing Type":"Drug Product Manufacturer","Products":["Oxygen"],"City":"Indianapolis","Country":"United States","Application Data":"Yes","Activeness Flag":"Unknown","latitude":"39.707706","longitude":"-86.08015"},{"Manufacturer":"Healthline Medical Equipment, Inc.","Manufacturing Type":"API Manufacturer","Products":["Cyclobenzaprine Hydrochloride","Cyclobenzaprine Hydrochloride Extended-release Capsules","Potassium Chloride","Potassium Chloride Extended-release Capsules","Potassium Chloride Extended-release Tablets","Propranolol Hydrochloride","Propranolol Hydrochloride Extended-release Capsules"],"City":"Pratt","Country":"United States","Application Data":"Yes","Activeness Flag":"Unknown","latitude":"37.647357","longitude":"-98.739385"},{"Manufacturer":"Praxair Distribution, Inc.","Manufacturing Type":"Drug Product Manufacturer","Products":["Oxygen"],"City":"Parsippany","Country":"United States","Application Data":"Yes","Activeness Flag":"Unknown","latitude":"40.868447","longitude":"-74.443727"},{"Manufacturer":"Praxair Distribution, Inc.","Manufacturing Type":"Drug Product Manufacturer","Products":["Nitrogen","Oxygen"],"City":"Tazewell","Country":"United States","Application Data":"Yes","Activeness Flag":"Unknown","latitude":"36.476564","longitude":"-83.541182"},{"Manufacturer":"Baxter, S.A. de C.V.","Manufacturing Type":"Drug Product Manufacturer","Products":["Candesartan Cilexetil","Candesartan Cilexetil And Hydrochlorothiazide Tablets","Candesartan Cilexetil Tablets","Emtricitabine","Emtricitabine And Tenofovir Disoproxil Fumarate Tablets","Famciclovir","Famciclovir Tablets","Hydrochlorothiazide","Irbesartan","Irbesartan And Hydrochlorothiazide Tablets","Irbesartan Tablets","Lamivudine","Lamivudine And Zidovudine Tablets","Lamivudine Tablets","Nevirapine","Nevirapine Tablets","Pyrazinamide","Pyrazinamide Tablets","Quetiapine Extended-release Tablets","Quetiapine Fumarate","Quetiapine Tablets","Rivastigmine","Rivastigmine Tartrate","Rivastigmine Tartrate Capsules","Silodosin","Silodosin Capsules","Tadalafil","Tadalafil Tablets","Tenofovir Disoproxil Fumarate","Valsartan","Valsartan And Hydrochlorothiazide Tablets","Valsartan Tablets","Vardenafil Hydrochloride","Vardenafil Orally Disintegrating Tablets","Zidovudine","Ziprasidone Capsules","Ziprasidone Hydrochloride"],"City":"Casper","Country":"United States","Application Data":"Yes","Activeness Flag":"Unknown","latitude":"42.85399","longitude":"-106.304547"},{"Manufacturer":"Keeler's Medical Supply, Inc.","Manufacturing Type":"Drug Product Manufacturer","Products":["Oxygen"],"City":"Delran","Country":"United States","Application Data":"Yes","Activeness Flag":"Unknown","latitude":"40.013829","longitude":"-74.969179"},{"Manufacturer":"Encompass Medical & Specialty Gases Ltd","Manufacturing Type":"Drug Product Manufacturer","Products":["Nitrogen","Oxygen"],"City":"Lawrence Township","Country":"United States","Application Data":"Yes","Activeness Flag":"Unknown","latitude":"40.282573","longitude":"-74.715417"},{"Manufacturer":"Martin Ekwealor Pharmaceu","Manufacturing Type":"API Manufacturer","Products":["Oxygen"],"City":"Merced","Country":"United States","Application Data":"Yes","Activeness Flag":"Unknown","latitude":"37.286481","longitude":"-120.510331"},{"Manufacturer":"Medical-Technical Gases, Inc.","Manufacturing Type":"Drug Product Manufacturer","Products":["Dalfampridine","Dalfampridine Extended-release Tablets","Naproxen"],"City":"East Brunswick","Country":"United States","Application Data":"Yes","Activeness Flag":"Unknown","latitude":"40.478802","longitude":"-74.407739"},{"Manufacturer":"Fresenius Kabi AB","Manufacturing Type":"Drug Product Manufacturer","Products":["Nitrogen"],"City":"Bremerton","Country":"United States","Application Data":"Yes","Activeness Flag":"Unknown","latitude":"47.580415","longitude":"-122.626267"},{"Manufacturer":"Oxygen Rich, LLC","Manufacturing Type":"Drug Product Manufacturer","Products":["Cisplatin","Cisplatin For Injection","Lomustine","Lomustine Capsules","Mitotane","Mitotane Tablets"],"City":"San Diego","Country":"United States","Application Data":"Yes","Activeness Flag":"Unknown","latitude":"32.901651","longitude":"-117.18477"},{"Manufacturer":"Matheson Tri-Gas, Inc.","Manufacturing Type":"API Manufacturer","Products":["Chlorhexidine Gluconate Oral Rinse"],"City":"Hauppauge","Country":"United States","Application Data":"Yes","Activeness Flag":"Unknown","latitude":"40.818767","longitude":"-73.259157"},{"Manufacturer":"Patheon Pharmaceuticals Inc.","Manufacturing Type":"Drug Product Manufacturer","Products":["Oxygen"],"City":"Osceola","Country":"United States","Application Data":"Yes","Activeness Flag":"Unknown","latitude":"35.653959","longitude":"-89.948481"},{"Manufacturer":"Air Products and Chemicals, Inc.","Manufacturing Type":"Drug Product Manufacturer","Products":["Oxygen"],"City":"East Windsor","Country":"United States","Application Data":"Yes","Activeness Flag":"Unknown","latitude":"40.260026","longitude":"-74.495452"},{"Manufacturer":"Tris Pharma, Inc.","Manufacturing Type":"Drug Product Manufacturer","Products":["Carbon Dioxide","Helium","Nitrogen","Nitrous Oxide","Oxygen"],"City":"Columbia","Country":"United States","Application Data":"Yes","Activeness Flag":"Unknown","latitude":"33.942581","longitude":"-80.964057"},{"Manufacturer":"Sciegen Pharmaceuticals, Inc.","Manufacturing Type":"Drug Product Manufacturer","Products":["Oxygen"],"City":"Ashtabula","Country":"United States","Application Data":"Yes","Activeness Flag":"Unknown","latitude":"41.890528","longitude":"-80.762824"},{"Manufacturer":"Yichang Humanwell Oral Solid Dosage Plant","Manufacturing Type":"Drug Product Manufacturer","Products":["Oxygen"],"City":"Moore","Country":"United States","Application Data":"Yes","Activeness Flag":"Unknown","latitude":"34.854318","longitude":"-82.015445"},{"Manufacturer":"Norco, Inc.","Manufacturing Type":"Drug Product Manufacturer","Products":["Oxygen"],"City":"Eagan","Country":"United States","Application Data":"Yes","Activeness Flag":"Unknown","latitude":null,"longitude":null},{"Manufacturer":"Shertech Laboratories, LLC","Manufacturing Type":"Drug Product Manufacturer","Products":["Nitrogen","Oxygen"],"City":"Steamboat Springs","Country":"United States","Application Data":"Yes","Activeness Flag":"Unknown","latitude":"40.48962","longitude":"-106.840416"},{"Manufacturer":"Air Products and Chemicals, Inc.","Manufacturing Type":"Drug Product Manufacturer","Products":["Carbon Dioxide","Helium","Nitrogen","Oxygen"],"City":"South Bend","Country":"United States","Application Data":"Yes","Activeness Flag":"Unknown","latitude":"41.709321","longitude":"-86.198349"},{"Manufacturer":"Matheson Tri-Gas, Inc.","Manufacturing Type":"API Manufacturer","Products":["Nitrogen","Oxygen"],"City":"Little Rock","Country":"United States","Application Data":"Yes","Activeness Flag":"Unknown","latitude":"34.712517","longitude":"-92.34326"},{"Manufacturer":"Linde Gas North America LLC","Manufacturing Type":"Drug Product Manufacturer","Products":["Oxygen"],"City":"Tulsa","Country":"United States","Application Data":"Yes","Activeness Flag":"Unknown","latitude":"36.235102","longitude":"-95.868052"},{"Manufacturer":"Maag Prescription Center, LLC","Manufacturing Type":"Drug Product Manufacturer","Products":["Oxygen"],"City":"Pixley","Country":"United States","Application Data":"Yes","Activeness Flag":"Unknown","latitude":"36.005141","longitude":"-119.303878"},{"Manufacturer":"Modern Nan Inc","Manufacturing Type":"Drug Product Manufacturer","Products":["Oxygen"],"City":"Denton","Country":"United States","Application Data":"Yes","Activeness Flag":"Unknown","latitude":"33.229578","longitude":"-97.161938"},{"Manufacturer":"Praxair Distribution, Inc.","Manufacturing Type":"Drug Product Manufacturer","Products":["Phenylephrine Hydrochloride","Phenylephrine Hydrochloride Ophthalmic Solution"],"City":"Plainsboro","Country":"United States","Application Data":"Yes","Activeness Flag":"Unknown","latitude":"40.335382","longitude":"-74.593536"},{"Manufacturer":"Healthmark Home Medical Equipment Inc","Manufacturing Type":"Drug Product Manufacturer","Products":["Oxygen"],"City":"Aibonito","Country":"United States","Application Data":"Yes","Activeness Flag":"Unknown","latitude":"18.1353","longitude":"-66.2648"},{"Manufacturer":"T.W. Smith Corp.","Manufacturing Type":"Drug Product Manufacturer","Products":["Pregabalin","Pregabalin Capsules"],"City":"Anniston","Country":"United States","Application Data":"Yes","Activeness Flag":"Unknown","latitude":"33.65396","longitude":"-85.824995"},{"Manufacturer":"Carl Zeiss Meditec, Inc.","Manufacturing Type":"Drug Product Manufacturer","Products":["Fluconazole","Fluconazole In Dextrose Injection","Fluconazole In Sodium Chloride Injection","Nicardipine Hydrochloride","Nicardipine Hydrochloride In Dextrose Injection","Nicardipine Hydrochloride In Sodium Chloride Injection","Nicardipine Hydrochloride Injection"],"City":"Myrtle Beach","Country":"United States","Application Data":"Yes","Activeness Flag":"Unknown","latitude":"33.70452","longitude":"-78.899953"},{"Manufacturer":"Merck Sharp & Dohme B.V.","Manufacturing Type":"Drug Product Manufacturer","Products":["Acetaminophen","Acetaminophen And Codeine Phosphate Tablets","Acyclovir","Acyclovir Tablets","Albuterol","Albuterol Inhalation Aerosol","Albuterol Sulfate","Allopurinol","Allopurinol Tablets","Alprazolam","Alprazolam Extended-release Tablets","Amoxicillin","Amoxicillin Capsules","Anastrozole","Anastrozole Tablets","Atorvastatin Calcium","Atorvastatin Calcium Tablets","Azelastine Hydrochloride","Benzphetamine Hydrochloride","Benzphetamine Hydrochloride Tablets","Betamethasone","Betamethasone Benzoate","Betamethasone Dipropionate Ointment","Betamethasone Sodium Phosphate","Betamethasone Valerate Ointment","Buprenorphine Hydrochloride","Buprenorphine Sublingual Tablets","Bupropion Hydrobromide Extended-release Tablets","Bupropion Hydrochloride","Bupropion Hydrochloride Extended-release Tablets","Cefdinir","Cefdinir For Oral Suspension","Cetirizine Hydrochloride","Cetirizine Hydrochloride Tablets","Chlorhexidine Gluconate Oral Rinse","Ciprofloxacin","Ciprofloxacin Hydrochloride","Ciprofloxacin Tablets","Clonidine","Clonidine Hydrochloride","Clonidine Hydrochloride Tablets","Clopidogrel Bisulfate","Clopidogrel Tablets","Codeine","Codeine Phosphate","Cyclobenzaprine Hydrochloride","Cyclobenzaprine Hydrochloride Tablets","Dexamethasone","Dexamethasone Tablets","Diazepam","Diazepam Tablets","Diclofenac Sodium","Diclofenac Sodium Topical Gel","Dicyclomine Hydrochloride","Dicyclomine Hydrochloride Capsules","Diethylpropion Hydrochloride","Diethylpropion Hydrochloride Tablets","Diflunisal","Diflunisal Tablets","Doxycycline","Doxycycline Capsules","Doxycycline Hyclate Capsules","Esomeprazole Magnesium","Esomeprazole Magnesium Delayed-release Capsules","Esomeprazole Sodium","Esomeprazole Strontium Delayed-release Capsules","Etodolac","Etodolac Capsules","Etodolac Extended-release Tablets","Finasteride","Finasteride Tablets","Fluticasone Propionate","Fluticasone Propionate Cream","Gentamicin Sulfate Ophthalmic Solution","Hydrocodone Bitartrate","Hydrocodone Bitartrate And Acetaminophen Tablets","Hydroxyzine Hydrochloride","Hydroxyzine Hydrochloride Tablets","Hyoscyamine","Hyoscyamine Sulfate","Indomethacin","Indomethacin Capsules","Indomethacin Extended-release Capsules","Indomethacin Sodium","Lamotrigine","Lamotrigine Tablets","Lansoprazole","Lansoprazole Delayed-release Capsules","Lidocaine","Lidocaine Ointment","Lisinopril","Lisinopril Tablets","Lorazepam","Lorazepam Tablets","Losartan Potassium","Losartan Potassium Tablets","Meloxicam","Meloxicam Tablets","Metformin Hydrochloride","Metformin Hydrochloride Extended-release Tablets","Metolazone","Metolazone Tablets","Minocycline Hydrochloride","Minocycline Hydrochloride Capsules","Naltrexone Hydrochloride","Naltrexone Hydrochloride Tablets","Naproxen","Naproxen Sodium Tablets","Naproxen Tablets","Nitrofurantoin","Nitrofurantoin Capsules","Olopatadine Hydrochloride Ophthalmic Solution","Ondansetron","Ondansetron Hydrochloride","Ondansetron Orally Disintegrating Tablets","Phendimetrazine Tartrate","Phendimetrazine Tartrate Tablets","Phentermine Hydrochloride","Phentermine Hydrochloride Tablets","Prednisone","Prednisone Tablets","Promethazine Hydrochloride","Promethazine Hydrochloride And Codeine Phosphate  Oral Solution","Raltegravir Potassium","Raltegravir Tablets","Rosuvastatin Calcium","Rosuvastatin Tablets","Sildenafil Citrate","Sildenafil Tablets","Sucralfate","Sucralfate Tablets","Tadalafil","Tadalafil Tablets","Tetracaine","Tetracaine Hydrochloride","Tetracaine Hydrochloride Ophthalmic Solution","Tramadol Hydrochloride","Tramadol Hydrochloride Extended-release Tablets","Tramadol Hydrochloride Tablets","Valacyclovir Hydrochloride","Valacyclovir Tablets","Zolpidem Tartrate","Zolpidem Tartrate Tablets"],"City":"East Chicago","Country":"United States","Application Data":"Yes","Activeness Flag":"Unknown","latitude":"41.633361","longitude":"-87.461743"},{"Manufacturer":"Human Genome Sciences, Inc.","Manufacturing Type":"Drug Product Manufacturer","Products":["Carbon Dioxide","Nitrogen","Nitrous Oxide","Oxygen"],"City":"Port St Lucie","Country":"United States","Application Data":"Yes","Activeness Flag":"Unknown","latitude":"27.3269","longitude":"-80.3994"},{"Manufacturer":"Airgas Usa, LLC","Manufacturing Type":"Drug Product Manufacturer","Products":["Hydrocortisone","Hydrocortisone Acetate","Hydrocortisone Hemisuccinate","Hydrocortisone Sodium Succinate","Pramoxine Hydrochloride"],"City":"Fayetteville","Country":"United States","Application Data":"Yes","Activeness Flag":"Unknown","latitude":"35.040656","longitude":"-78.866503"},{"Manufacturer":"Alpine Home Medical Equipment, L.C.","Manufacturing Type":"Drug Product Manufacturer","Products":["Nitrogen","Oxygen"],"City":"Raleigh","Country":"United States","Application Data":"Yes","Activeness Flag":"Unknown","latitude":"35.898925","longitude":"-78.558518"},{"Manufacturer":"PFIZER HEALTHCARE INDIA PRIVATE LIMITED","Manufacturing Type":"Drug Product Manufacturer","Products":["Cefotaxime For Injection","Cefotaxime Injection","Cefotaxime Sodium","Cefprozil","Cefprozil Tablets","Ceftriaxone For Injection","Ceftriaxone Sodium","Cefuroxime Axetil","Cefuroxime Axetil Tablets","Cefuroxime Sodium"],"City":"Burley","Country":"United States","Application Data":"Yes","Activeness Flag":"Unknown","latitude":"42.557351","longitude":"-113.793327"},{"Manufacturer":"Zhejiang Jingxin Pharmaceutical Co., Ltd.","Manufacturing Type":"Drug Product Manufacturer","Products":["Acetaminophen","Acyclovir","Acyclovir Ointment","Buprenorphine Hydrochloride","Buprenorphine Transdermal System","Clobetasol Propionate","Clobetasol Propionate Cream","Estradiol","Estradiol Acetate","Estradiol Transdermal System","Ethinyl Estradiol","Etonogestrel","Etonogestrel And Ethinyl Estradiol Vaginal System","Fluocinonide","Fluocinonide Cream","Levothyroxine Sodium","Levothyroxine Sodium Tablets","Lidocaine","Lidocaine Ointment","Nitrofurantoin","Nitrofurantoin Capsules","Norelgestromin","Norelgestromin And Ethinyl Estradiol Transdermal System","Ritonavir","Ritonavir Tablets","Rivastigmine","Rivastigmine Tartrate","Rivastigmine Transdermal System","Testosterone","Testosterone Topical Gel","Tobramycin","Tobramycin Inhalation Solution","Tobramycin Sulfate","Tramadol Hydrochloride","Tramadol Hydrochloride And Acetaminophen Tablets"],"City":"Fort Lauderdale","Country":"United States","Application Data":"Yes","Activeness Flag":"Unknown","latitude":"26.089896","longitude":"-80.396309"},{"Manufacturer":"Linde Inc.","Manufacturing Type":"Drug Product Manufacturer","Products":["Docetaxel","Docetaxel Injection","Fulvestrant","Fulvestrant Injection","Oxaliplatin","Oxaliplatin For Injection","Oxaliplatin Injection"],"City":"Sacramento","Country":"United States","Application Data":"Yes","Activeness Flag":"Unknown","latitude":"38.520916","longitude":"-121.379518"},{"Manufacturer":"Kee Medical Services, Inc.","Manufacturing Type":"Drug Product Manufacturer","Products":["Cyclobenzaprine Hydrochloride","Cyclobenzaprine Hydrochloride Extended-release Capsules","Potassium Chloride","Potassium Chloride Extended-release Tablets"],"City":"Somerset","Country":"United States","Application Data":"Yes","Activeness Flag":"Unknown","latitude":"40.533439","longitude":"-74.520385"},{"Manufacturer":"The Harvard Drug Group L L C","Manufacturing Type":"Drug Product Manufacturer","Products":["Nitrogen","Oxygen"],"City":"Manassas","Country":"United States","Application Data":"Yes","Activeness Flag":"Unknown","latitude":"38.751287","longitude":"-77.492135"},{"Manufacturer":"Airgas Usa, LLC","Manufacturing Type":"Drug Product Manufacturer","Products":["Oxygen"],"City":"Greenville","Country":"United States","Application Data":"Yes","Activeness Flag":"Unknown","latitude":"35.652498","longitude":"-77.354371"},{"Manufacturer":"Linde Inc.","Manufacturing Type":"Drug Product Manufacturer","Products":["Nitroglycerin Sublingual Tablets"],"City":"Winston Salem","Country":"United States","Application Data":"Yes","Activeness Flag":"Unknown","latitude":"36.090176","longitude":"-80.286628"},{"Manufacturer":"Praxair Distribution, Inc.","Manufacturing Type":"Drug Product Manufacturer","Products":["Acetic Acid","Acetic Acid Otic Solution","Amantadine Hydrochloride","Amantadine Hydrochloride Oral Solution","Brompheniramine Maleate","Carbamazepine","Carbamazepine Oral Suspension","Clobetasol Propionate","Clobetasol Propionate Topical Solution","Codeine","Codeine Phosphate","Dexamethasone","Dexamethasone Elixir","Dexamethasone Oral Solution","Dextromethorphan","Dextromethorphan Hydrobromide","Doxepin Hydrochloride","Doxepin Hydrochloride Oral Solution","Erythromycin","Erythromycin Topical Solution","Fluticasone Propionate","Furosemide","Furosemide Oral Solution","Glacial Acetic Acid","Homatropine Methylbromide","Hydrocodone Bitartrate","Hydroxyzine Hydrochloride","Hydroxyzine Hydrochloride Oral Solution","Lactulose","Lactulose For Oral Solution","Lactulose Solution","Levetiracetam","Levetiracetam Oral Solution","Lidocaine","Lidocaine Hydrochloride","Lidocaine Hydrochloride Oral Topical Solution","Lindane","Lindane Shampoo","Megestrol Acetate","Megestrol Acetate Oral Suspension","Nystatin","Nystatin For Oral Suspension","Nystatin Oral Suspension","Oxybutynin Chloride","Oxybutynin Chloride Oral Solution","Oxycodone Hydrochloride","Oxycodone Hydrochloride Oral Solution","Phenytoin","Phenytoin Oral Suspension","Prednisolone","Prednisolone Oral Solution","Prednisolone Tebutate","Promethazine Hydrochloride","Promethazine Hydrochloride And Codeine Phosphate  Oral Solution","Promethazine Hydrochloride And Dextromethorphan Hydrobromide Oral Solution","Promethazine Hydrochloride Oral Solution","Pseudoephedrine Hydrochloride","Selenium Sulfide","Triamcinolone","Triamcinolone Acetonide","Triamcinolone Acetonide Lotion","Valproic Acid","Valproic Acid Oral Solution"],"City":"Lagrange","Country":"United States","Application Data":"Yes","Activeness Flag":"Unknown","latitude":"33.019531","longitude":"-85.072555"},{"Manufacturer":"Eon Labs, Inc.","Manufacturing Type":"Drug Product Manufacturer","Products":["Azithromycin","Azithromycin For Injection","Bacteriostatic Sodium Chloride Injection","Bumetanide","Bumetanide Injection","Bupivacaine","Bupivacaine Hydrochloride","Bupivacaine Hydrochloride And Epinephrine Injection","Bupivacaine Hydrochloride Injection","Buprenorphine Hydrochloride","Cisatracurium Besylate","Cisatracurium Besylate Injection","Deferoxamine Mesylate","Deferoxamine Mesylate For Injection","Desoxycholic Acid","Dexmedetomidine Injection","Diazepam","Diazepam Injection","Diltiazem Hydrochloride","Diltiazem Hydrochloride For Injection","Diltiazem Hydrochloride Injection","Doxercalciferol","Doxercalciferol Injection","Epinephrine","Epinephrine Injection","Epoetin","Erythromycin","Erythromycin Lactobionate For Injection","Fenoldopam Mesylate","Fenoldopam Mesylate Injection","Fentanyl","Fentanyl Citrate","Fentanyl Citrate Injection","Filgrastim","Heparin Sodium","Heparin Sodium Injection","Hydromorphone Hydrochloride","Hydromorphone Hydrochloride Injection","Hydroxyprogesterone Caproate","Hydroxyprogesterone Caproate Injection","Infliximab","Ketamine Hydrochloride","Ketamine Hydrochloride Injection","Ketorolac Tromethamine","Ketorolac Tromethamine Injection","Labetalol Hydrochloride","Labetalol Hydrochloride Injection","Lidocaine","Lidocaine Hydrochloride","Lidocaine Hydrochloride And Epinephrine Injection","Lidocaine Hydrochloride Injection","Lorazepam","Lorazepam Injection","Meperidine Hydrochloride","Meperidine Hydrochloride Injection","Mepivacaine Hydrochloride","Mepivacaine Hydrochloride Injection","Midazolam","Midazolam Hydrochloride","Midazolam Injection","Morphine Sulfate","Morphine Sulfate Injection","Naloxone Hydrochloride","Naloxone Hydrochloride Injection","Norepinephrine Bitartrate","Norepinephrine Bitartrate Injection","Ondansetron","Ondansetron Hydrochloride","Ondansetron Injection","Povidone-iodine","Povidone-iodine Topical Solution","Remifentanil Hydrochloride","Ribavirin","Ribavirin For Inhalation Solution","Sargramostim","Sargramostim For Injection","Sodium Chloride","Sodium Chloride Injection","Sodium Nitroprusside","Vancomycin","Vancomycin Hydrochloride","Vancomycin Hydrochloride For Injection","Vancomycin Injection","Vecuronium Bromide","Vecuronium Bromide For Injection"],"City":"Kingsport","Country":"United States","Application Data":"Yes","Activeness Flag":"Unknown","latitude":"36.445741","longitude":"-82.520648"},{"Manufacturer":"Healthwise Pharmacy of Greenville, Inc.","Manufacturing Type":"Drug Product Manufacturer","Products":["Oxygen"],"City":"Keokuk","Country":"United States","Application Data":"Yes","Activeness Flag":"Unknown","latitude":"40.407951","longitude":"-91.38868"},{"Manufacturer":"Airgas Usa, LLC","Manufacturing Type":"Drug Product Manufacturer","Products":["Helium","Nitrogen","Oxygen"],"City":"Memphis","Country":"United States","Application Data":"Yes","Activeness Flag":"Unknown","latitude":"35.049998","longitude":"-90.153193"},{"Manufacturer":"AIRGAS USA, LLC","Manufacturing Type":"Drug Product Manufacturer","Products":["Nitrogen","Oxygen"],"City":"Nitro","Country":"United States","Application Data":"Yes","Activeness Flag":"Unknown","latitude":"38.444577","longitude":"-81.831042"},{"Manufacturer":"Riverside Medical Center","Manufacturing Type":"Drug Product Manufacturer","Products":["Naproxen","Naproxen Sodium","Rilpivirine","Sumatriptan","Sumatriptan Succinate"],"City":"Idaho Falls","Country":"United States","Application Data":"Yes","Activeness Flag":"Unknown","latitude":"43.5206","longitude":"-112.0319"},{"Manufacturer":"Airgas Usa, LLC","Manufacturing Type":"Drug Product Manufacturer","Products":["Sotalol Hydrochloride","Sotalol Hydrochloride Injection"],"City":"Largo","Country":"United States","Application Data":"Yes","Activeness Flag":"Unknown","latitude":"27.894158","longitude":"-82.738356"},{"Manufacturer":"Airgas Usa, LLC","Manufacturing Type":"Drug Product Manufacturer","Products":["Aflibercept","Aflibercept Injection","Dupilumab"],"City":"Columbia","Country":"United States","Application Data":"Yes","Activeness Flag":"Unknown","latitude":"34.0689","longitude":"-81.02"},{"Manufacturer":"Matheson Tri-Gas, Inc.","Manufacturing Type":"Drug Product Manufacturer","Products":["Oxygen"],"City":"Reidsville","Country":"United States","Application Data":"Yes","Activeness Flag":"Unknown","latitude":"36.349765","longitude":"-79.664994"},{"Manufacturer":"Airgas Usa, LLC","Manufacturing Type":"Drug Product Manufacturer","Products":["Pegloticase","Pegloticase Injection","Somatropin","Somatropin For Injection"],"City":"White Plains","Country":"United States","Application Data":"Yes","Activeness Flag":"Unknown","latitude":"41.049732","longitude":"-73.802127"},{"Manufacturer":"PILERNE CORNER","Manufacturing Type":"Drug Product Manufacturer","Products":["Chorionic Gonadotropin","Chorionic Gonadotropin For Injection"],"City":"San Diego","Country":"United States","Application Data":"Yes","Activeness Flag":"Unknown","latitude":"32.894311","longitude":"-117.230335"},{"Manufacturer":"Hill Dermaceuticals, Inc.","Manufacturing Type":"Drug Product Manufacturer","Products":["Capsaicin"],"City":"Irvine","Country":"United States","Application Data":"Yes","Activeness Flag":"Unknown","latitude":"33.686892","longitude":"-117.8523"},{"Manufacturer":"Wilson Products Compressed Gas Co","Manufacturing Type":"Drug Product Manufacturer","Products":["Albendazole","Albendazole Tablets","Albuterol","Albuterol Inhalation Aerosol","Albuterol Sulfate","Alosetron Hydrochloride","Alosetron Tablets","Arformoterol Inhalation Solution","Arformoterol Tartrate","Budesonide","Budesonide Inhalation Suspension","Entecavir","Entecavir Tablets","Fenofibrate","Fenofibrate Tablets","Fenofibric Acid Tablets","Griseofulvin","Griseofulvin Oral Suspension","Ipratropium Bromide","Ipratropium Bromide And Albuterol Sulfate Inhalation Solution","Levalbuterol Hydrochloride","Levalbuterol Inhalation Solution","Levalbuterol Tartrate","Metoprolol Fumarate","Metoprolol Succinate","Metoprolol Succinate Extended-release Capsules","Metoprolol Succinate Extended-release Tablets","Olopatadine Hydrochloride Ophthalmic Solution","Ranolazine","Sumatriptan","Sumatriptan Nasal Spray","Sumatriptan Succinate","Zidovudine","Zidovudine Oral Solution"],"City":"Sellersville","Country":"United States","Application Data":"Yes","Activeness Flag":"Unknown","latitude":"40.352148","longitude":"-75.329758"},{"Manufacturer":"Advocate Home Care Products, Incorporated","Manufacturing Type":"Drug Product Manufacturer","Products":["Oxygen"],"City":"Greenville","Country":"United States","Application Data":"Yes","Activeness Flag":"Unknown","latitude":"35.599415","longitude":"-77.402525"},{"Manufacturer":"Wayne Oxygen & Welding Supply Co Inc","Manufacturing Type":"Drug Product Manufacturer","Products":["Oxygen"],"City":"Mount Vernon","Country":"United States","Application Data":"Yes","Activeness Flag":"Unknown","latitude":"40.91309","longitude":"-73.81512"},{"Manufacturer":"Mabscott Supply Company","Manufacturing Type":"API Manufacturer","Products":["Hyaluronidase","Infliximab"],"City":"Indianapolis","Country":"United States","Application Data":"Yes","Activeness Flag":"Unknown","latitude":"39.784305","longitude":"-86.234744"},{"Manufacturer":"Sanford Healthcare Accessories, L.L.C.","Manufacturing Type":"API Manufacturer","Products":["Asparaginase","Asparaginase Erwinia Chrysanthemi For Injection"],"City":"Orlando","Country":"United States","Application Data":"Yes","Activeness Flag":"Unknown","latitude":"28.585415","longitude":"-81.411063"},{"Manufacturer":"CIPAN - COMPANHIA INDUSTRIAL PRODUTORA DE ANTIBI\u00d3TICOS, S.A.","Manufacturing Type":"Drug Product Manufacturer","Products":["Nitrogen","Nitrous Oxide","Oxygen"],"City":"Baltimore","Country":"United States","Application Data":"Yes","Activeness Flag":"Unknown","latitude":"39.307692","longitude":"-76.4778"},{"Manufacturer":"Airgas Usa, LLC","Manufacturing Type":"Drug Product Manufacturer","Products":["Carbon Dioxide","Helium","Nitrogen","Nitrous Oxide","Oxygen"],"City":"Greenville","Country":"United States","Application Data":"Yes","Activeness Flag":"Unknown","latitude":"35.64047","longitude":"-77.337959"},{"Manufacturer":"Airgas Usa, LLC","Manufacturing Type":"Drug Product Manufacturer","Products":["Oxygen"],"City":"Breckenridge","Country":"United States","Application Data":"Yes","Activeness Flag":"Unknown","latitude":"39.510736","longitude":"-106.05238"},{"Manufacturer":"Regency Medical Equipment, Inc.","Manufacturing Type":"Drug Product Manufacturer","Products":["Nitrogen","Oxygen"],"City":"Pueblo","Country":"United States","Application Data":"Yes","Activeness Flag":"Unknown","latitude":"38.269606","longitude":"-104.615253"},{"Manufacturer":"Norco, Inc.","Manufacturing Type":"Drug Product Manufacturer","Products":["Halobetasol Propionate","Hydrocortisone","Hydrocortisone Acetate","Hydrocortisone Acetate And Pramoxine Hydrochloride Cream","Hydrocortisone Acetate And Pramoxine Hydrochloride Lotion","Hydrocortisone Acetate Cream","Hydrocortisone Acetate Lotion","Hydrocortisone Acetate Ointment","Hydrocortisone Butyrate","Hydrocortisone Butyrate Cream","Hydrocortisone Butyrate Ointment","Hydrocortisone Cream","Hydrocortisone Hemisuccinate","Hydrocortisone Lotion","Hydrocortisone Ointment","Hydrocortisone Probutate Cream","Hydrocortisone Sodium Succinate","Hydrocortisone Valerate Cream","Hydrocortisone Valerate Ointment","Pramoxine Hydrochloride"],"City":"Mesa","Country":"United States","Application Data":"Yes","Activeness Flag":"Unknown","latitude":"33.407679","longitude":"-111.882714"},{"Manufacturer":"Lampton Welding Supply Co Inc","Manufacturing Type":"Drug Product Manufacturer","Products":["Aripiprazole","Aripiprazole Tablets"],"City":"Santa Fe Springs","Country":"United States","Application Data":"Yes","Activeness Flag":"Unknown","latitude":"33.949982","longitude":"-118.059661"},{"Manufacturer":"Polypeptide","Manufacturing Type":"Drug Product Manufacturer","Products":["Oxygen"],"City":"La Porte","Country":"United States","Application Data":"Yes","Activeness Flag":"Unknown","latitude":"29.693808","longitude":"-95.033574"},{"Manufacturer":"HORIZON THERAPEUTICS PUBLIC LIMITED COMPANY","Manufacturing Type":"Drug Product Manufacturer","Products":["Nitrogen","Oxygen"],"City":"Benton Harbor","Country":"United States","Application Data":"Yes","Activeness Flag":"Unknown","latitude":"42.087002","longitude":"-86.431236"},{"Manufacturer":"CIPLA LIMITED","Manufacturing Type":"Drug Product Manufacturer","Products":["Acyclovir","Acyclovir For Injection","Acyclovir Injection","Cisatracurium Besylate","Cisatracurium Besylate Injection","Doxycycline","Doxycycline For Injection","Doxycycline Hyclate","Haloperidol","Haloperidol Decanoate","Haloperidol Injection","Losartan Potassium","Losartan Potassium Tablets","Ranitidine Hydrochloride","Ranitidine In Sodium Chloride Injection","Ranitidine Injection","Succinylcholine Chloride","Succinylcholine Chloride Injection","Verapamil Hydrochloride","Verapamil Hydrochloride Injection"],"City":"Saint Paul","Country":"United States","Application Data":"Yes","Activeness Flag":"Unknown","latitude":"45.068635","longitude":"-93.049987"},{"Manufacturer":"Messer LLC","Manufacturing Type":"Drug Product Manufacturer","Products":["Carbon Dioxide","Helium","Oxygen"],"City":"Little Falls","Country":"United States","Application Data":"Yes","Activeness Flag":"Unknown","latitude":"45.9853","longitude":"-94.3449"},{"Manufacturer":"Airgas Usa, LLC","Manufacturing Type":"Drug Product Manufacturer","Products":["Cobicistat","Darunavir","Darunavir And Cobicistat Tablets"],"City":"Leominster","Country":"United States","Application Data":"Yes","Activeness Flag":"Unknown","latitude":"42.54923","longitude":"-71.746399"},{"Manufacturer":"Mylan Institutional Inc.","Manufacturing Type":"Drug Product Manufacturer","Products":["Oxygen"],"City":"Salem","Country":"United States","Application Data":"Yes","Activeness Flag":"Unknown","latitude":"44.916633","longitude":"-123.018892"},{"Manufacturer":"Rta Pediatric Care Inc.","Manufacturing Type":"Drug Product Manufacturer","Products":["Abiraterone Acetate","Abiraterone Acetate Tablets","Adefovir Dipivoxil","Adefovir Dipivoxil Tablets","Amlodipine And Atorvastatin Tablets","Amlodipine Besylate","Aripiprazole","Aripiprazole Oral Solution","Aripiprazole Tablets","Atomoxetine Capsules","Atomoxetine Hydrochloride","Atorvastatin Calcium","Atorvastatin Calcium Tablets","Azelastine Hydrochloride","Azelastine Hydrochloride Ophthalmic Solution","Balsalazide Disodium","Balsalazide Disodium Capsules","Bimatoprost","Bimatoprost Ophthalmic Solution","Budesonide","Carbamazepine","Carbamazepine Tablets","Celecoxib","Celecoxib Capsules","Cilostazol","Cilostazol Tablets","Clopidogrel Bisulfate","Clopidogrel Tablets","Cyclosporine","Cyclosporine Capsules","Deferiprone","Deferiprone Tablets","Desmopressin Acetate","Desmopressin Nasal Spray Solution","Diclofenac Sodium","Diclofenac Sodium Topical Solution","Doxycycline","Doxycycline Hyclate","Doxycycline Hyclate Tablets","Doxycycline Tablets","Duloxetine Delayed-release Capsules","Duloxetine Hydrochloride","Famciclovir","Famciclovir Tablets","Fenofibrate","Fenofibrate Capsules","Fluticasone Propionate","Gabapentin","Gabapentin Capsules","Gabapentin Tablets","Galantamine Tablets","Ibandronate Sodium","Ibandronate Sodium Tablets","Imatinib Mesylate","Imatinib Tablets","Ipratropium Bromide","Ketorolac Tromethamine","Lamivudine","Lamivudine Tablets","Leflunomide","Leflunomide Tablets","Letrozole","Letrozole Tablets","Levetiracetam","Levetiracetam Extended-release Tablets","Linezolid","Metformin Hydrochloride","Metformin Hydrochloride Extended-release Tablets","Metformin Hydrochloride Tablets","Mirtazapine","Mirtazapine Tablets","Mometasone Furoate","Mycophenolic Acid Delayed-release Tablets","Olanzapine","Olanzapine Orally Disintegrating Tablets","Olanzapine Pamoate","Olanzapine Tablets","Omeprazole","Omeprazole Delayed-release Capsules","Omeprazole Magnesium","Paroxetine Extended-release Tablets","Paroxetine Hydrochloride","Paroxetine Mesylate Tablets","Paroxetine Tablets","Penicillamine","Penicillamine Capsules","Pentoxifylline","Pentoxifylline Extended-release Tablets","Potassium Chloride","Potassium Chloride For Oral Solution","Potassium Chloride Oral Solution","Quetiapine Fumarate","Quetiapine Tablets","Risedronate Sodium","Risedronate Sodium Tablets","Selegiline Hydrochloride","Selegiline Hydrochloride Capsules","Sirolimus","Sotalol Hydrochloride","Sotalol Hydrochloride Tablets","Tetrabenazine","Tetrabenazine Tablets","Tizanidine Capsules","Tizanidine Hydrochloride","Tranexamic Acid","Tranexamic Acid Tablets","Travoprost","Travoprost Ophthalmic Solution","Trazodone Hydrochloride","Trazodone Hydrochloride Tablets"],"City":"El Paso","Country":"United States","Application Data":"Yes","Activeness Flag":"Unknown","latitude":"31.790647","longitude":"-106.404194"},{"Manufacturer":"Integrated Homecare Services, Inc.","Manufacturing Type":"Drug Product Manufacturer","Products":["Nitrous Oxide"],"City":"Feasterville","Country":"United States","Application Data":"Yes","Activeness Flag":"Unknown","latitude":"40.149742","longitude":"-75.010832"},{"Manufacturer":"TORRENT PHARMACEUTICALS LIMITED","Manufacturing Type":"Drug Product Manufacturer","Products":["Nitrogen","Oxygen"],"City":"Morrisville","Country":"United States","Application Data":"Yes","Activeness Flag":"Unknown","latitude":"35.833835","longitude":"-78.812384"},{"Manufacturer":"Contract Pharmacal Corp.","Manufacturing Type":"Drug Product Manufacturer","Products":["Oxygen"],"City":"Fort Collins","Country":"United States","Application Data":"Yes","Activeness Flag":"Unknown","latitude":"40.590081","longitude":"-105.057773"},{"Manufacturer":"Airgas Usa, LLC","Manufacturing Type":"Drug Product Manufacturer","Products":["Carbon Dioxide","Helium","Nitrogen","Nitrous Oxide","Oxygen"],"City":"Marble","Country":"United States","Application Data":"Yes","Activeness Flag":"Unknown","latitude":"35.1374","longitude":"-83.9769"},{"Manufacturer":"Bayer Pharma Aktiengesellschaft","Manufacturing Type":"Drug Product Manufacturer","Products":["Oxygen"],"City":"Augusta","Country":"United States","Application Data":"Yes","Activeness Flag":"Unknown","latitude":"33.446497","longitude":"-81.977866"},{"Manufacturer":"Airgas Usa, LLC","Manufacturing Type":"Drug Product Manufacturer","Products":["Amiodarone Hydrochloride","Amiodarone Hydrochloride Injection","Argatroban","Argatroban In Sodium Chloride Injection","Ascorbic Acid","Ascorbic Acid Injection","Cidofovir","Cidofovir Injection","Clonidine","Clonidine Hydrochloride","Clonidine Hydrochloride Injection","Dexmedetomidine Injection","Dimethyl Sulfoxide","Dimethyl Sulfoxide Irrigation","Diphenhydramine Hydrochloride","Diphenhydramine Hydrochloride Injection","Esmolol Hydrochloride","Esmolol Hydrochloride Injection","Fulvestrant","Fulvestrant Injection","Glatiramer Acetate","Hydralazine Hydrochloride","Hydralazine Hydrochloride Injection","Ketamine Hydrochloride","Ketamine Hydrochloride Injection","Magnesium Chloride","Methocarbamol","Methocarbamol Injection","Naloxone Hydrochloride","Naloxone Hydrochloride Injection","Palonosetron Hydrochloride","Palonosetron Injection","Sodium Tetradecyl Sulfate Injection","Thiamine Hydrochloride","Thiamine Hydrochloride Injection","Tranexamic Acid","Tranexamic Acid Injection"],"City":"Philadelphia","Country":"United States","Application Data":"Yes","Activeness Flag":"Unknown","latitude":"39.992769","longitude":"-75.09295"},{"Manufacturer":"Air Source Industries","Manufacturing Type":"Drug Product Manufacturer","Products":["Amphetamine Mixed Salts Extended-release Capsules","Amphetamine Sulfate","Certolizumab Pegol","Certolizumab Pegol For Injection","Certolizumab Pegol Injection","Dextroamphetamine Sulfate"],"City":"Jeannette","Country":"United States","Application Data":"Yes","Activeness Flag":"Unknown","latitude":"40.315423","longitude":"-79.618804"},{"Manufacturer":"Apertus Pharmaceutical, LLC","Manufacturing Type":"Drug Product Manufacturer","Products":["Nitrogen","Nitrous Oxide","Oxygen"],"City":"East Petersburg","Country":"United States","Application Data":"Yes","Activeness Flag":"Unknown","latitude":"40.087816","longitude":"-76.351803"},{"Manufacturer":"Medtech Gases Inc","Manufacturing Type":"Drug Product Manufacturer","Products":["Oxygen"],"City":"Wichita","Country":"United States","Application Data":"Yes","Activeness Flag":"Unknown","latitude":"37.737502","longitude":"-97.331784"},{"Manufacturer":"Oxarc, Inc.","Manufacturing Type":"Drug Product Manufacturer","Products":["Posaconazole","Posaconazole Delayed-release Tablets"],"City":"Fargo","Country":"United States","Application Data":"Yes","Activeness Flag":"Unknown","latitude":"46.832684","longitude":"-96.831885"},{"Manufacturer":"Novartis Pharma Schweizerhalle AG","Manufacturing Type":"Drug Product Manufacturer","Products":["Acetazolamide","Acetazolamide Extended-release Capsules","Clonidine","Clonidine Hydrochloride","Clonidine Hydrochloride Extended-release Tablets","Desogestrel","Desogestrel And Ethinyl Estradiol Tablets","Diltiazem Hydrochloride","Diltiazem Hydrochloride Extended-release Capsules","Drospirenone","Drospirenone And Ethinyl Estradiol Tablets","Estradiol","Estradiol Acetate","Estradiol And Norethindrone Acetate Tablets","Ethinyl Estradiol","Ethinyl Estradiol Tablets","Ferrous Fumarate","Indomethacin","Indomethacin Extended-release Capsules","Indomethacin Sodium","Levonorgestrel","Metformin Hydrochloride","Metformin Hydrochloride Extended-release Tablets","Metoprolol Fumarate","Metoprolol Succinate","Metoprolol Succinate Extended-release Capsules","Metoprolol Succinate Extended-release Tablets","Nifedipine","Nifedipine Extended-release Tablets","Norethindrone","Norethindrone Acetate","Norethindrone Acetate And Ethinyl Estradiol Tablets","Norethindrone Acetate Tablets","Norethindrone And Ethinyl Estradiol Tablets","Norethindrone Tablets","Norgestimate","Norgestrel","Quetiapine Extended-release Tablets","Quetiapine Fumarate"],"City":"La Junta","Country":"United States","Application Data":"Yes","Activeness Flag":"Unknown","latitude":"37.987945","longitude":"-103.532518"},{"Manufacturer":"Auxilium Pharmaceuticals, LLC","Manufacturing Type":"Drug Product Manufacturer","Products":["Oxygen"],"City":"Pharr","Country":"United States","Application Data":"Yes","Activeness Flag":"Unknown","latitude":"26.213507","longitude":"-98.195538"},{"Manufacturer":"Miller Medical & Respiratory, Inc.","Manufacturing Type":"Drug Product Manufacturer","Products":["Brentuximab Vedotin","Brentuximab Vedotin For Injection","Eribulin Mesylate","Eribulin Mesylate Injection","Valrubicin","Valrubicin Intravesical Solution"],"City":"Decatur","Country":"United States","Application Data":"Yes","Activeness Flag":"Unknown","latitude":"39.854647","longitude":"-88.976186"},{"Manufacturer":"Perrigo Company","Manufacturing Type":"API Manufacturer","Products":["Nitrogen","Oxygen"],"City":"Ventura","Country":"United States","Application Data":"Yes","Activeness Flag":"Unknown","latitude":"34.260483","longitude":"-119.227955"},{"Manufacturer":"LTS LOHMANN Therapie-Systeme AG","Manufacturing Type":"Drug Product Manufacturer","Products":["Oxygen"],"City":"Kailua Kona","Country":"United States","Application Data":"Yes","Activeness Flag":"Unknown","latitude":"19.689459","longitude":"-156.01636"},{"Manufacturer":"Oxygen Plus, Inc.","Manufacturing Type":"Drug Product Manufacturer","Products":["Dalteparin Sodium","Somatropin","Somatropin For Injection"],"City":"Mountain Grove","Country":"United States","Application Data":"Yes","Activeness Flag":"Unknown","latitude":"37.122351","longitude":"-92.283623"},{"Manufacturer":"3M HEALTH CARE LIMITED","Manufacturing Type":"Drug Product Manufacturer","Products":["Oxygen"],"City":"Tyler","Country":"United States","Application Data":"Yes","Activeness Flag":"Unknown","latitude":"32.300507","longitude":"-95.327204"},{"Manufacturer":"Express Medical Inc","Manufacturing Type":"Drug Product Manufacturer","Products":["Oxygen"],"City":"San Antonio","Country":"United States","Application Data":"Yes","Activeness Flag":"Unknown","latitude":"29.432543","longitude":"-98.613445"},{"Manufacturer":"FARMABIOS SPA","Manufacturing Type":"Drug Product Manufacturer","Products":["Amiodarone Hydrochloride","Amiodarone Hydrochloride Tablets","Dipyridamole","Dipyridamole Tablets"],"City":"Cadillac","Country":"United States","Application Data":"Yes","Activeness Flag":"Unknown","latitude":"44.278941","longitude":"-85.406573"},{"Manufacturer":"Novitium Pharma LLC","Manufacturing Type":"Drug Product Manufacturer","Products":["Asenapine Maleate","Asenapine Sublingual Tablets","Ethinyl Estradiol","Norgestimate","Norgestimate And Ethinyl Estradiol Tablets"],"City":"Wilmington","Country":"United States","Application Data":"Yes","Activeness Flag":"Unknown","latitude":"39.736296","longitude":"-75.541287"},{"Manufacturer":"Airgas Usa, LLC","Manufacturing Type":"API Manufacturer","Products":["Anhydrous Citric Acid","Citric Acid Monohydrate","Isoniazid","Isoniazid Oral Solution","Sodium Citrate","Sodium Citrate And Citric Acid Oral Solution","Sodium Polystyrene Sulfonate","Sodium Polystyrene Sulfonate Suspension","Spironolactone","Spironolactone Oral Suspension","Triamcinolone","Triamcinolone Acetonide","Triamcinolone Acetonide Ointment"],"City":"New Bern","Country":"United States","Application Data":"Yes","Activeness Flag":"Unknown","latitude":"35.080313","longitude":"-77.029137"},{"Manufacturer":"CORDEN PHARMA BERGAMO SPA","Manufacturing Type":"Drug Product Manufacturer","Products":["Oxygen"],"City":"Rahway","Country":"United States","Application Data":"Yes","Activeness Flag":"Unknown","latitude":"40.609106","longitude":"-74.258275"},{"Manufacturer":"Takeda Pharmaceuticals U.S.A., Inc.","Manufacturing Type":"Drug Product Manufacturer","Products":["Ciprofloxacin","Ciprofloxacin For Oral Suspension","Ciprofloxacin Hydrochloride","Ciprofloxacin Tablets"],"City":"Walla Walla","Country":"United States","Application Data":"Yes","Activeness Flag":"Unknown","latitude":"46.066293","longitude":"-118.342491"},{"Manufacturer":"Hospira Zagreb d.o.o.","Manufacturing Type":"Drug Product Manufacturer","Products":["Lidocaine","Menthol"],"City":"Peoria","Country":"United States","Application Data":"Yes","Activeness Flag":"Unknown","latitude":"40.786546","longitude":"-89.60985"},{"Manufacturer":"Yuhan Chemical Incorporation","Manufacturing Type":"Drug Product Manufacturer","Products":["Fomepizole","Indomethacin","Indomethacin Capsules","Indomethacin Sodium","Nicardipine Hydrochloride","Nicardipine Hydrochloride In Dextrose Injection","Nicardipine Hydrochloride In Sodium Chloride Injection","Nicardipine Hydrochloride Injection"],"City":"Bloomington","Country":"United States","Application Data":"Yes","Activeness Flag":"Unknown","latitude":"39.153942","longitude":"-86.541868"},{"Manufacturer":"AVARA LISCATE PHARMACEUTICAL SERVICES SPA","Manufacturing Type":"Drug Product Manufacturer","Products":["Atorvastatin Calcium","Atorvastatin Calcium Tablets","Esomeprazole Magnesium","Esomeprazole Magnesium Delayed-release Capsules","Esomeprazole Sodium","Esomeprazole Strontium Delayed-release Capsules"],"City":"Manati","Country":"United States","Application Data":"Yes","Activeness Flag":"Unknown","latitude":"18.429","longitude":"-66.4844"},{"Manufacturer":"Airgas Usa, LLC","Manufacturing Type":"API Manufacturer","Products":["Nitrogen","Oxygen"],"City":"Phoenix","Country":"United States","Application Data":"Yes","Activeness Flag":"Unknown","latitude":"33.41693","longitude":"-111.99281"},{"Manufacturer":"General Distributing Co.","Manufacturing Type":"Drug Product Manufacturer","Products":["Nitrogen","Oxygen"],"City":"Hicksville","Country":"United States","Application Data":"Yes","Activeness Flag":"Unknown","latitude":"40.76689","longitude":"-73.550759"},{"Manufacturer":"Akorn Operating Company LLC","Manufacturing Type":"Drug Product Manufacturer","Products":["Oxygen"],"City":"Baxley","Country":"United States","Application Data":"Yes","Activeness Flag":"Unknown","latitude":"31.772371","longitude":"-82.350937"},{"Manufacturer":"HELSINN BIREX PHARMACEUTICALS LIMITED","Manufacturing Type":"Drug Product Manufacturer","Products":["Dexamethasone","Sulfacetamide","Sulfacetamide Sodium","Sulfacetamide Sodium Ophthalmic Solution","Tobramycin","Tobramycin And Dexamethasone Ophthalmic Suspension","Tobramycin Sulfate"],"City":"Ludlow","Country":"United States","Application Data":"Yes","Activeness Flag":"Unknown","latitude":"42.190325","longitude":"-72.508811"},{"Manufacturer":"All About Pediatrics, LLC","Manufacturing Type":"Drug Product Manufacturer","Products":["Oxygen"],"City":"Section","Country":"United States","Application Data":"Yes","Activeness Flag":"Unknown","latitude":"34.581231","longitude":"-85.989716"},{"Manufacturer":"Teva Pharmaceuticals Inc","Manufacturing Type":"Drug Product Manufacturer","Products":["Oxygen"],"City":"Findlay","Country":"United States","Application Data":"Yes","Activeness Flag":"Unknown","latitude":"41.052757","longitude":"-83.615534"},{"Manufacturer":"Aloha Medical Supplies & Services, Inc.","Manufacturing Type":"Drug Product Manufacturer","Products":["Oxygen"],"City":"Orlando","Country":"United States","Application Data":"Yes","Activeness Flag":"Unknown","latitude":"28.441542","longitude":"-81.412485"},{"Manufacturer":"Praxair Distribution, Inc.","Manufacturing Type":"Drug Product Manufacturer","Products":["Oxygen"],"City":"West Grove","Country":"United States","Application Data":"Yes","Activeness Flag":"Unknown","latitude":"39.822738","longitude":"-75.887527"},{"Manufacturer":"Tri State Medical Supply","Manufacturing Type":"Drug Product Manufacturer","Products":["Oxygen"],"City":"Reading","Country":"United States","Application Data":"Yes","Activeness Flag":"Unknown","latitude":"40.346615","longitude":"-75.943611"},{"Manufacturer":"Bristol-Myers Squibb Company","Manufacturing Type":"Drug Product Manufacturer","Products":["Amlodipine Besylate","Amlodipine Besylate Tablets","Celecoxib","Celecoxib Capsules"],"City":"Chesapeake","Country":"United States","Application Data":"Yes","Activeness Flag":"Unknown","latitude":"36.761839","longitude":"-76.235666"},{"Manufacturer":"Oxygen Plus, Inc.","Manufacturing Type":"Drug Product Manufacturer","Products":["Nitrogen"],"City":"Stockertown","Country":"United States","Application Data":"Yes","Activeness Flag":"Unknown","latitude":"40.7538","longitude":"-75.2625"},{"Manufacturer":"Matheson Tri-Gas, Inc.","Manufacturing Type":"Drug Product Manufacturer","Products":["Oxygen"],"City":"Pearl","Country":"United States","Application Data":"Yes","Activeness Flag":"Unknown","latitude":"32.279933","longitude":"-90.137273"},{"Manufacturer":"Airgas Usa, LLC","Manufacturing Type":"Drug Product Manufacturer","Products":["Adalimumab","Adalimumab Injection","Isopropyl Alcohol","Isopropyl Rubbing Alcohol","Lopinavir","Lopinavir And Ritonavir Tablets","Ritonavir","Rubbing Alcohol"],"City":"Spencer","Country":"United States","Application Data":"Yes","Activeness Flag":"Unknown","latitude":"38.805065","longitude":"-81.353239"},{"Manufacturer":"Tennessee Medical Equipment, Inc.","Manufacturing Type":"Drug Product Manufacturer","Products":["Nitrofurantoin","Nitrofurantoin Oral Suspension"],"City":"La Porte","Country":"United States","Application Data":"Yes","Activeness Flag":"Unknown","latitude":"41.722159","longitude":"-86.734318"},{"Manufacturer":"Gsk Consumer Health, Inc.","Manufacturing Type":"Drug Product Manufacturer","Products":["Testosterone","Testosterone Topical Gel"],"City":"Decatur","Country":"United States","Application Data":"Yes","Activeness Flag":"Unknown","latitude":"34.585757","longitude":"-86.980494"},{"Manufacturer":"Encompass Medical & Specialty Gases Ltd","Manufacturing Type":"Drug Product Manufacturer","Products":["Amlodipine Besylate","Amlodipine Besylate Tablets","Amoxicillin","Amoxicillin And Clavulanate Potassium For Oral Suspension","Amoxicillin Capsules","Amoxicillin For Oral Suspension","Amoxicillin Oral Suspension","Amoxicillin Tablets","Captopril","Captopril Tablets","Ciprofloxacin","Ciprofloxacin Hydrochloride","Ciprofloxacin Tablets","Clavulanate Potassium","Cortisone Acetate","Cortisone Acetate Tablets","Donepezil Hydrochloride","Donepezil Hydrochloride Tablets","Doxycycline","Doxycycline Capsules","Doxycycline Hyclate","Doxycycline Hyclate Capsules","Glyburide","Glyburide Tablets","Isosorbide Dinitrate Tablets","Lisinopril","Lisinopril Tablets","Pantoprazole Sodium","Pantoprazole Sodium For Injection","Piroxicam","Piroxicam Capsules","Prednisone","Prednisone Tablets"],"City":"Vega Baja","Country":"United States","Application Data":"Yes","Activeness Flag":"Unknown","latitude":"18.4533","longitude":"-66.4069"},{"Manufacturer":"Morton Grove Pharmaceuticals, Inc.","Manufacturing Type":"Drug Product Manufacturer","Products":["Omeprazole","Omeprazole And Sodium Bicarbonate Capsules","Omeprazole And Sodium Bicarbonate For Oral Suspension","Omeprazole Magnesium","Sodium Bicarbonate"],"City":"Anaheim","Country":"United States","Application Data":"Yes","Activeness Flag":"Unknown","latitude":"33.814504","longitude":"-117.883584"},{"Manufacturer":"Lilly Del Caribe, Inc.","Manufacturing Type":"Drug Product Manufacturer","Products":["Atezolizumab","Atezolizumab Injection","Bevacizumab","Bevacizumab Injection","Hyaluronidase","Ocrelizumab","Peginterferon Alfa-2a","Pertuzumab","Rituximab"],"City":"Cambridge","Country":"Canada","Application Data":"Yes","Activeness Flag":"Unknown","latitude":"43.40468","longitude":"-80.31383"},