[{"Manufacturer":"Frontida Biopharm, Inc.","Manufacturing Type":"MANUFACTURE","Products":["BUPIVACAINE","CARVEDILOL","CARVEDILOL TABLETS","FLUCONAZOLE","FLUCONAZOLE TABLETS","FLUOXETINE CAPSULES","HYDROCHLOROTHIAZIDE","ISOPROTERENOL HYDROCHLORIDE","ISOPROTERENOL HYDROCHLORIDE INJECTION","ISOPROTERENOL SULFATE","LEVETIRACETAM","LEVETIRACETAM TABLETS","LOSARTAN POTASSIUM","LOSARTAN POTASSIUM AND HYDROCHLOROTHIAZIDE TABLETS","MELOXICAM","OLANZAPINE","OLANZAPINE PAMOATE","OLANZAPINE TABLETS","PIOGLITAZONE HYDROCHLORIDE","PIOGLITAZONE TABLETS","RAMIPRIL","RAMIPRIL CAPSULES","SERTRALINE HYDROCHLORIDE","SERTRALINE HYDROCHLORIDE TABLETS","SIMVASTATIN","SIMVASTATIN TABLETS","SUMATRIPTAN","SUMATRIPTAN INJECTION","SUMATRIPTAN SUCCINATE","TAMSULOSIN HYDROCHLORIDE","TAMSULOSIN HYDROCHLORIDE CAPSULES","ZIDOVUDINE","ZIDOVUDINE CAPSULES","ZIDOVUDINE TABLETS"],"City":"Lincoln","Country":"United States","Application Data":"Yes","Activeness Flag":"Unknown","Forecasted Volume":"50 kg\/yr","latitude":"41.916328","longitude":"-71.480167"},{"Manufacturer":"KLINGE CHEMICALS LIMITED","Manufacturing Type":"API MANUFACTURE","Products":["NITROGEN","OXYGEN"],"City":"South Plainfield","Country":"United States","Application Data":"Yes","Activeness Flag":"Unknown","Forecasted Volume":"50 kg\/yr","latitude":"40.560018","longitude":"-74.407869"},{"Manufacturer":"Ash Stevens LLC","Manufacturing Type":"API MANUFACTURE","Products":["CLOFARABINE","CLOFARABINE INJECTION"],"City":"Buffalo","Country":"United States","Application Data":"Yes","Activeness Flag":"Unknown","Forecasted Volume":"50 kg\/yr","latitude":"42.86302","longitude":"-78.85834"},{"Manufacturer":"SOLARA ACTIVE PHARMA SCIENCES LIMITED","Manufacturing Type":"API MANUFACTURE","Products":["CEFADROXIL","CEFADROXIL CAPSULES","CEFADROXIL FOR ORAL SUSPENSION","CEFDINIR","CEFDINIR CAPSULES","CEFDINIR FOR ORAL SUSPENSION","CEFIXIME","CEFIXIME CAPSULES","CEFIXIME FOR ORAL SUSPENSION","CEFPROZIL","CEFPROZIL FOR ORAL SUSPENSION","CEFPROZIL TABLETS","CEFTRIAXONE FOR INJECTION","CEFTRIAXONE SODIUM","CEFUROXIME AXETIL","CEFUROXIME AXETIL TABLETS","CEFUROXIME SODIUM","CEPHALEXIN","CEPHALEXIN CAPSULES","CEPHALEXIN FOR ORAL SUSPENSION","CEPHALEXIN HYDROCHLORIDE","LISINOPRIL","LISINOPRIL TABLETS"],"City":"Bethlehem","Country":"United States","Application Data":"Yes","Activeness Flag":"Unknown","Forecasted Volume":"50 kg\/yr","latitude":"40.62155","longitude":"-75.356206"},{"Manufacturer":"G.S. Cosmeceutical Usa, Inc.","Manufacturing Type":"MANUFACTURE","Products":["HYALURONIDASE","OCRELIZUMAB","OMALIZUMAB","PERTUZUMAB","PERTUZUMAB INJECTION","RITUXIMAB","RITUXIMAB INJECTION","TOCILIZUMAB","TOCILIZUMAB INJECTION"],"City":"Baton Rouge","Country":"United States","Application Data":"Yes","Activeness Flag":"Unknown","Forecasted Volume":"50 kg\/yr","latitude":"30.470665","longitude":"-91.138991"},{"Manufacturer":"Apertus Pharmaceutical, LLC","Manufacturing Type":"MANUFACTURE","Products":["OXYGEN"],"City":"Conshohocken","Country":"United States","Application Data":"Yes","Activeness Flag":"Unknown","Forecasted Volume":"50 kg\/yr","latitude":"40.073377","longitude":"-75.308311"},{"Manufacturer":"GLAROPHARM AG","Manufacturing Type":"MANUFACTURE","Products":["OXYGEN"],"City":"Ashtabula","Country":"United States","Application Data":"Yes","Activeness Flag":"Unknown","Forecasted Volume":"50 kg\/yr","latitude":"41.913288","longitude":"-80.756187"},{"Manufacturer":"Catalent Cts, LLC","Manufacturing Type":"MANUFACTURE","Products":["BUPIVACAINE","BUPIVACAINE HYDROCHLORIDE","BUPIVACAINE HYDROCHLORIDE INJECTION"],"City":"Cincinnati","Country":"United States","Application Data":"Yes","Activeness Flag":"Unknown","Forecasted Volume":"50 kg\/yr","latitude":"39.106863","longitude":"-84.535586"},{"Manufacturer":"Airgas Usa, LLC","Manufacturing Type":"MANUFACTURE","Products":["OXYGEN"],"City":"Lone Star","Country":"United States","Application Data":"Yes","Activeness Flag":"Unknown","Forecasted Volume":"50 kg\/yr","latitude":"32.939023","longitude":"-94.698288"},{"Manufacturer":"Praxair Distribution, Inc.","Manufacturing Type":"API MANUFACTURE","Products":["CHLORPROMAZINE","CHLORPROMAZINE HYDROCHLORIDE","COCAINE","COCAINE HYDROCHLORIDE","HOMATROPINE METHYLBROMIDE","HYDROCODONE BITARTRATE","OXYCODONE HYDROCHLORIDE","OXYCODONE HYDROCHLORIDE CAPSULES","OXYCODONE HYDROCHLORIDE ORAL SOLUTION","POTASSIUM CHLORIDE","POTASSIUM CHLORIDE FOR ORAL SOLUTION","POTASSIUM CHLORIDE ORAL SOLUTION"],"City":"Nampa","Country":"United States","Application Data":"Yes","Activeness Flag":"Unknown","Forecasted Volume":"50 kg\/yr","latitude":"43.602227","longitude":"-116.595114"},{"Manufacturer":"Midmichigan Visiting Nurse Association","Manufacturing Type":"MANUFACTURE","Products":["OXYGEN"],"City":"Fort Smith","Country":"United States","Application Data":"Yes","Activeness Flag":"Unknown","Forecasted Volume":"50 kg\/yr","latitude":"35.312128","longitude":"-94.423206"},{"Manufacturer":"Simcere Pharmaceutical Co., Ltd.","Manufacturing Type":"MANUFACTURE","Products":["RILUZOLE","RILUZOLE TABLETS"],"City":"Grand Rapids","Country":"United States","Application Data":"Yes","Activeness Flag":"Unknown","Forecasted Volume":"50 kg\/yr","latitude":"42.960717","longitude":"-85.680433"},{"Manufacturer":"Antibioticos do Brasil Ltda","Manufacturing Type":"MANUFACTURE","Products":["HYDROQUINONE","HYDROQUINONE CREAM","METRONIDAZOLE","METRONIDAZOLE BENZOATE"],"City":"Saint Cloud","Country":"United States","Application Data":"Yes","Activeness Flag":"Unknown","Forecasted Volume":"50 kg\/yr","latitude":"45.550028","longitude":"-94.18923"},{"Manufacturer":"O2 Plus Inc","Manufacturing Type":"MANUFACTURE","Products":["DOXYCYCLINE","DOXYCYCLINE HYCLATE","DOXYCYCLINE HYCLATE TABLETS","DOXYCYCLINE TABLETS","METHYLERGONOVINE MALEATE","METHYLERGONOVINE MALEATE TABLETS"],"City":"Tempe","Country":"United States","Application Data":"Yes","Activeness Flag":"Unknown","Forecasted Volume":"50 kg\/yr","latitude":"33.440285","longitude":"-111.924568"},{"Manufacturer":"Lester E. Cox Medical Centers","Manufacturing Type":"MANUFACTURE","Products":["OXYGEN"],"City":"Salt Lake City","Country":"United States","Application Data":"Yes","Activeness Flag":"Unknown","Forecasted Volume":"50 kg\/yr","latitude":"40.730412","longitude":"-111.989763"},{"Manufacturer":"IPCA LABORATORIES LIMITED","Manufacturing Type":"MANUFACTURE","Products":["CARBON DIOXIDE","HELIUM","NITROUS OXIDE","OXYGEN"],"City":"Madison Heights","Country":"United States","Application Data":"Yes","Activeness Flag":"Unknown","Forecasted Volume":"50 kg\/yr","latitude":"42.479269","longitude":"-83.084693"},{"Manufacturer":"Helget, Inc.","Manufacturing Type":"MANUFACTURE","Products":["ALUMINUM CHLORIDE","BENZOCAINE","SODIUM FLUORIDE","SODIUM FLUORIDE GEL","STANNOUS FLUORIDE"],"City":"Shenandoah","Country":"United States","Application Data":"Yes","Activeness Flag":"Unknown","Forecasted Volume":"50 kg\/yr","latitude":"40.765009","longitude":"-95.372714"},{"Manufacturer":"Medical Equipment and Supplies of America LLC","Manufacturing Type":"MANUFACTURE","Products":["OXYGEN"],"City":"Indiana","Country":"United States","Application Data":"Yes","Activeness Flag":"Unknown","Forecasted Volume":"50 kg\/yr","latitude":"40.607608","longitude":"-79.173112"},{"Manufacturer":"Ridgeview Medical Center","Manufacturing Type":"MANUFACTURE","Products":["LEVETIRACETAM","LEVETIRACETAM EXTENDED-RELEASE TABLETS"],"City":"Oakwood Village","Country":"United States","Application Data":"Yes","Activeness Flag":"Unknown","Forecasted Volume":"50 kg\/yr","latitude":"41.376326","longitude":"-81.511232"},{"Manufacturer":"Airgas Usa, LLC","Manufacturing Type":"MANUFACTURE","Products":["INFLIXIMAB"],"City":"Morristown","Country":"United States","Application Data":"Yes","Activeness Flag":"Unknown","Forecasted Volume":"50 kg\/yr","latitude":"40.799866","longitude":"-74.45102"},{"Manufacturer":"Peptido, chemische und pharmazeutische Rohstoffgesellschaft mit beschr\u00e4nkter Haftung","Manufacturing Type":"API MANUFACTURE","Products":["CAPECITABINE","CAPECITABINE TABLETS","DIMETHYL FUMARATE","DIMETHYL FUMARATE DELAYED-RELEASE CAPSULES","RANOLAZINE","SILDENAFIL CITRATE","SILDENAFIL TABLETS"],"City":"Rogers","Country":"United States","Application Data":"Yes","Activeness Flag":"Unknown","Forecasted Volume":"50 kg\/yr","latitude":"36.348768","longitude":"-94.116489"},{"Manufacturer":"Praxair Distribution, Inc.","Manufacturing Type":"API MANUFACTURE","Products":["NITROGEN"],"City":"Clifton","Country":"United States","Application Data":"Yes","Activeness Flag":"Unknown","Forecasted Volume":"50 kg\/yr","latitude":"40.877665","longitude":"-74.161052"},{"Manufacturer":"Kenric, Inc","Manufacturing Type":"MANUFACTURE","Products":["OXYGEN"],"City":"National City","Country":"United States","Application Data":"Yes","Activeness Flag":"Unknown","Forecasted Volume":"50 kg\/yr","latitude":"32.659909","longitude":"-117.112928"},{"Manufacturer":"MANKIND PHARMA LIMITED","Manufacturing Type":"MANUFACTURE","Products":["OXYGEN"],"City":"Johnstown","Country":"United States","Application Data":"Yes","Activeness Flag":"Unknown","Forecasted Volume":"50 kg\/yr","latitude":"40.318361","longitude":"-78.912477"},{"Manufacturer":"Amsino Healthcare (usa) Inc.","Manufacturing Type":"API MANUFACTURE","Products":["LIDOCAINE","LIDOCAINE AND PRILOCAINE CREAM","PRILOCAINE"],"City":"McKees Rocks","Country":"United States","Application Data":"Yes","Activeness Flag":"Unknown","Forecasted Volume":"50 kg\/yr","latitude":"40.482726","longitude":"-80.065568"},{"Manufacturer":"Airgas Usa, LLC","Manufacturing Type":"MANUFACTURE","Products":["NITROGEN","OXYGEN"],"City":"Research Triangle Park","Country":"United States","Application Data":"Yes","Activeness Flag":"Unknown","Forecasted Volume":"50 kg\/yr","latitude":"35.912216","longitude":"-78.877874"},{"Manufacturer":"Matheson Tri-Gas, Inc.","Manufacturing Type":"MANUFACTURE","Products":["CASPOFUNGIN ACETATE","CASPOFUNGIN FOR INJECTION","CISATRACURIUM BESYLATE","CISATRACURIUM BESYLATE INJECTION","CYCLOPHOSPHAMIDE","CYCLOPHOSPHAMIDE FOR INJECTION","DOCETAXEL","DOCETAXEL INJECTION","ICATIBANT ACETATE","ICATIBANT INJECTION","LETROZOLE","LETROZOLE TABLETS"],"City":"Weston","Country":"United States","Application Data":"Yes","Activeness Flag":"Unknown","Forecasted Volume":"50 kg\/yr","latitude":"26.08094","longitude":"-80.370291"},{"Manufacturer":"Airgas Usa, LLC","Manufacturing Type":"MANUFACTURE","Products":["CLOBETASOL PROPIONATE","CLOBETASOL PROPIONATE TOPICAL SOLUTION","ERYTHROMYCIN","ERYTHROMYCIN TOPICAL SOLUTION","METFORMIN HYDROCHLORIDE","METFORMIN HYDROCHLORIDE ORAL SOLUTION","POTASSIUM CHLORIDE","POTASSIUM CHLORIDE FOR ORAL SOLUTION","POTASSIUM CHLORIDE ORAL SOLUTION"],"City":"Damariscotta","Country":"United States","Application Data":"Yes","Activeness Flag":"Unknown","Forecasted Volume":"50 kg\/yr","latitude":"44.047199","longitude":"-69.503784"},{"Manufacturer":"BLUEPHARMA - IND\u00daSTRIA FARMAC\u00caUTICA, S.A.","Manufacturing Type":"MANUFACTURE","Products":["ALBUTEROL","ALBUTEROL INHALATION SOLUTION","ALBUTEROL SULFATE","BACTERIOSTATIC SODIUM CHLORIDE INJECTION","BUDESONIDE","BUDESONIDE INHALATION SUSPENSION","IPRATROPIUM BROMIDE","IPRATROPIUM BROMIDE AND ALBUTEROL SULFATE INHALATION SOLUTION","IPRATROPIUM BROMIDE INHALATION SOLUTION","KETOROLAC TROMETHAMINE","KETOROLAC TROMETHAMINE INJECTION","SODIUM CHLORIDE","SODIUM CHLORIDE INJECTION"],"City":"Tallahassee","Country":"United States","Application Data":"Yes","Activeness Flag":"Unknown","Forecasted Volume":"50 kg\/yr","latitude":"30.417175","longitude":"-84.302252"},{"Manufacturer":"SANOFI CHIMIE","Manufacturing Type":"MANUFACTURE","Products":["DEXAMETHASONE","NEOMYCIN AND POLYMYXIN B SULFATES AND DEXAMETHASONE OPHTHALMIC SUSPENSION"],"City":"La Crosse","Country":"United States","Application Data":"Yes","Activeness Flag":"Unknown","Forecasted Volume":"50 kg\/yr","latitude":"43.829248","longitude":"-91.241743"},{"Manufacturer":"Pharmaceutics International, Inc.","Manufacturing Type":"MANUFACTURE","Products":["CIPROFLOXACIN","CIPROFLOXACIN FOR ORAL SUSPENSION","CIPROFLOXACIN HYDROCHLORIDE","CIPROFLOXACIN TABLETS"],"City":"Canton","Country":"United States","Application Data":"Yes","Activeness Flag":"Unknown","Forecasted Volume":"50 kg\/yr","latitude":"40.786643","longitude":"-81.349587"},{"Manufacturer":"Karen Martin","Manufacturing Type":"MANUFACTURE","Products":["OXYGEN"],"City":"Bedford","Country":"United States","Application Data":"Yes","Activeness Flag":"Unknown","Forecasted Volume":"50 kg\/yr","latitude":"41.3655","longitude":"-81.50844"},{"Manufacturer":"Arizona Respiratory and Medical Supply Services, Inc.","Manufacturing Type":"MANUFACTURE","Products":["OXYGEN"],"City":"Martins Ferry","Country":"United States","Application Data":"Yes","Activeness Flag":"Unknown","Forecasted Volume":"50 kg\/yr","latitude":"40.099153","longitude":"-80.722978"},{"Manufacturer":"Kalispell Regional Healthcare System","Manufacturing Type":"MANUFACTURE","Products":["NITROGEN"],"City":"Butte","Country":"United States","Application Data":"Yes","Activeness Flag":"Unknown","Forecasted Volume":"50 kg\/yr","latitude":"45.96769","longitude":"-112.51536"},{"Manufacturer":"Landauer-Metropolitan, Inc.","Manufacturing Type":"MANUFACTURE","Products":["HYALURONIDASE"],"City":"Lincoln","Country":"United States","Application Data":"Yes","Activeness Flag":"Unknown","Forecasted Volume":"50 kg\/yr","latitude":"40.868969","longitude":"-96.625559"},{"Manufacturer":"Praxair Canada Inc","Manufacturing Type":"API MANUFACTURE","Products":["HYDROCHLOROTHIAZIDE","HYDROCHLOROTHIAZIDE CAPSULES"],"City":"Fort Lauderdale","Country":"United States","Application Data":"Yes","Activeness Flag":"Unknown","Forecasted Volume":"50 kg\/yr","latitude":"26.066225","longitude":"-80.213397"},{"Manufacturer":"Encompass Medical & Specialty Gases Ltd","Manufacturing Type":"MANUFACTURE","Products":["ATENOLOL","ATENOLOL TABLETS","CARBAMAZEPINE","CARBAMAZEPINE EXTENDED-RELEASE TABLETS","CIPROFLOXACIN","CIPROFLOXACIN HYDROCHLORIDE","CIPROFLOXACIN TABLETS","CLOMIPRAMINE HYDROCHLORIDE","CLOMIPRAMINE HYDROCHLORIDE CAPSULES","DICLOFENAC SODIUM","DICLOFENAC SODIUM DELAYED-RELEASE TABLETS","FLUCONAZOLE","FLUCONAZOLE TABLETS","GLIPIZIDE","GLIPIZIDE EXTENDED-RELEASE TABLETS","LITHIUM CARBONATE","LITHIUM CARBONATE EXTENDED-RELEASE TABLETS","MIDODRINE HYDROCHLORIDE","MIDODRINE HYDROCHLORIDE TABLETS","OXYBUTYNIN CHLORIDE","OXYBUTYNIN CHLORIDE EXTENDED-RELEASE TABLETS","TINIDAZOLE","TINIDAZOLE TABLETS","TOLTERODINE TARTRATE"],"City":"Salt Lake City","Country":"United States","Application Data":"Yes","Activeness Flag":"Unknown","Forecasted Volume":"50 kg\/yr","latitude":"40.773488","longitude":"-112.005223"},{"Manufacturer":"Alvix Laboratories, LLC","Manufacturing Type":"MANUFACTURE","Products":["NITROGEN","OXYGEN"],"City":"Pittston","Country":"United States","Application Data":"Yes","Activeness Flag":"Unknown","Forecasted Volume":"50 kg\/yr","latitude":"41.30572","longitude":"-75.774331"},{"Manufacturer":"Btg International Inc.","Manufacturing Type":"MANUFACTURE","Products":["OXYGEN"],"City":"Sioux City","Country":"United States","Application Data":"Yes","Activeness Flag":"Unknown","Forecasted Volume":"50 kg\/yr","latitude":"42.488261","longitude":"-96.380248"},{"Manufacturer":"CRYSTAL PHARMA SAU","Manufacturing Type":"MANUFACTURE","Products":["BETAMETHASONE","BETAMETHASONE BENZOATE","BETAMETHASONE DIPROPIONATE","BETAMETHASONE SODIUM PHOSPHATE","CALCIPOTRIENE","CALCIPOTRIENE AND BETAMETHASONE DIPROPIONATE OINTMENT","CALCIPOTRIENE AND BETAMETHASONE DIPROPIONATE TOPICAL FOAM","CALCIPOTRIENE AND BETAMETHASONE DIPROPIONATE TOPICAL SUSPENSION","CALCIPOTRIENE OINTMENT","INGENOL MEBUTATE","INGENOL MEBUTATE TOPICAL GEL","TACROLIMUS","TACROLIMUS OINTMENT"],"City":"Minneapolis","Country":"United States","Application Data":"Yes","Activeness Flag":"Unknown","Forecasted Volume":"50 kg\/yr","latitude":"45.024984","longitude":"-93.283224"},{"Manufacturer":"LUPIN LIMITED","Manufacturing Type":"MANUFACTURE","Products":["NITROGEN"],"City":"San Diego","Country":"United States","Application Data":"Yes","Activeness Flag":"Unknown","Forecasted Volume":"50 kg\/yr","latitude":"32.904194","longitude":"-117.228182"},{"Manufacturer":"Airgas Usa, LLC","Manufacturing Type":"API MANUFACTURE","Products":["DRONABINOL","DRONABINOL CAPSULES"],"City":"Saginaw","Country":"United States","Application Data":"Yes","Activeness Flag":"Unknown","Forecasted Volume":"50 kg\/yr","latitude":"43.450459","longitude":"-83.877336"},{"Manufacturer":"Fresenius Kabi Deutschland GmbH","Manufacturing Type":"API MANUFACTURE","Products":["AZELASTINE HYDROCHLORIDE","FLUTICASONE PROPIONATE"],"City":"Ramsey","Country":"United States","Application Data":"Yes","Activeness Flag":"Unknown","Forecasted Volume":"50 kg\/yr","latitude":"45.221023","longitude":"-93.422155"},{"Manufacturer":"Perrigo Company","Manufacturing Type":"MANUFACTURE","Products":["CARBON DIOXIDE","HELIUM","NITROUS OXIDE","OXYGEN"],"City":"Elkhart","Country":"United States","Application Data":"Yes","Activeness Flag":"Unknown","Forecasted Volume":"50 kg\/yr","latitude":"41.689326","longitude":"-85.943182"},{"Manufacturer":"Salina Regional Home Medical Services, LLC","Manufacturing Type":"MANUFACTURE","Products":["HYDROQUINONE","HYDROQUINONE CREAM"],"City":"Springfield","Country":"United States","Application Data":"Yes","Activeness Flag":"Unknown","Forecasted Volume":"50 kg\/yr","latitude":"39.829093","longitude":"-89.637929"},{"Manufacturer":"CYNDEA PHARMA SL","Manufacturing Type":"MANUFACTURE","Products":["OXYGEN"],"City":"Corpus Christi","Country":"United States","Application Data":"Yes","Activeness Flag":"Unknown","Forecasted Volume":"50 kg\/yr","latitude":"27.78583","longitude":"-97.450407"},{"Manufacturer":"J B CHEMICALS AND PHARMACEUTICALS LIMITED","Manufacturing Type":"API MANUFACTURE","Products":["SUMATRIPTAN","SUMATRIPTAN SUCCINATE"],"City":"Wichita Falls","Country":"United States","Application Data":"Yes","Activeness Flag":"Unknown","Forecasted Volume":"50 kg\/yr","latitude":"33.919282","longitude":"-98.49643"},{"Manufacturer":"CIPLA LIMITED","Manufacturing Type":"MANUFACTURE","Products":["OXYGEN"],"City":"Midland","Country":"United States","Application Data":"Yes","Activeness Flag":"Unknown","Forecasted Volume":"50 kg\/yr","latitude":"43.610275","longitude":"-84.210012"},{"Manufacturer":"Purity Cylinder Gases, Inc.","Manufacturing Type":"MANUFACTURE","Products":["CARBON DIOXIDE"],"City":"Stockton","Country":"United States","Application Data":"Yes","Activeness Flag":"Unknown","Forecasted Volume":"50 kg\/yr","latitude":"37.944338","longitude":"-121.255203"},{"Manufacturer":"DIPHARMA FRANCIS SRL","Manufacturing Type":"MANUFACTURE","Products":["AMANTADINE HYDROCHLORIDE","AMANTADINE HYDROCHLORIDE CAPSULES","BENZONATATE","BENZONATATE CAPSULES","ERGOCALCIFEROL","ERGOCALCIFEROL CAPSULES","ETHOSUXIMIDE","ETHOSUXIMIDE CAPSULES","PROGESTERONE","VALPROIC ACID","VALPROIC ACID CAPSULES"],"City":"Danville","Country":"United States","Application Data":"Yes","Activeness Flag":"Unknown","Forecasted Volume":"50 kg\/yr","latitude":"40.139443","longitude":"-87.630227"},{"Manufacturer":"Matheson Tri-Gas, Inc.","Manufacturing Type":"MANUFACTURE","Products":["BUPRENORPHINE AND NALOXONE SUBLINGUAL TABLETS","BUPRENORPHINE HYDROCHLORIDE","BUPRENORPHINE SUBLINGUAL TABLETS","FENOFIBRATE","FENOFIBRATE CAPSULES","FENOFIBRATE TABLETS","FENOFIBRIC ACID TABLETS"],"City":"Lake City","Country":"United States","Application Data":"Yes","Activeness Flag":"Unknown","Forecasted Volume":"50 kg\/yr","latitude":"30.186614","longitude":"-82.60474"},{"Manufacturer":"MYLAN LABORATORIES LIMITED","Manufacturing Type":"MANUFACTURE","Products":["ALBUTEROL","ALBUTEROL SULFATE","IPRATROPIUM BROMIDE","IPRATROPIUM BROMIDE AND ALBUTEROL SULFATE INHALATION SOLUTION"],"City":"La Salle","Country":"United States","Application Data":"Yes","Activeness Flag":"Unknown","Forecasted Volume":"50 kg\/yr","latitude":"41.367758","longitude":"-89.103309"},{"Manufacturer":"Actavis Pharma Company","Manufacturing Type":"MANUFACTURE","Products":["OXYGEN"],"City":"Franklin","Country":"United States","Application Data":"Yes","Activeness Flag":"Unknown","Forecasted Volume":"50 kg\/yr","latitude":"39.535547","longitude":"-84.300604"},{"Manufacturer":"Analgesic Services Inc","Manufacturing Type":"MANUFACTURE","Products":["OLANZAPINE","OLANZAPINE FOR EXTENDED-RELEASE INJECTABLE SUSPENSION","OLANZAPINE PAMOATE","OXALIPLATIN","OXALIPLATIN FOR INJECTION","OXALIPLATIN INJECTION","PACLITAXEL","PACLITAXEL INJECTION","TEMSIROLIMUS","TEMSIROLIMUS INJECTION"],"City":"Hollywood","Country":"United States","Application Data":"Yes","Activeness Flag":"Unknown","Forecasted Volume":"50 kg\/yr","latitude":"26.011385","longitude":"-80.150217"},{"Manufacturer":"Elite Laboratories, Inc.","Manufacturing Type":"API MANUFACTURE","Products":["ALBUTEROL","ALBUTEROL INHALATION AEROSOL","ALBUTEROL SULFATE"],"City":"Macon","Country":"United States","Application Data":"Yes","Activeness Flag":"Unknown","Forecasted Volume":"50 kg\/yr","latitude":"32.814063","longitude":"-83.562692"},{"Manufacturer":"Targeted Medical Pharma, Inc.","Manufacturing Type":"MANUFACTURE","Products":["MAGNESIUM CHLORIDE"],"City":"Greeley","Country":"United States","Application Data":"Yes","Activeness Flag":"Unknown","Forecasted Volume":"50 kg\/yr","latitude":"40.407065","longitude":"-104.775033"},{"Manufacturer":"CIPLA LIMITED","Manufacturing Type":"API MANUFACTURE","Products":["NITROGEN"],"City":"Montgomery","Country":"United States","Application Data":"Yes","Activeness Flag":"Unknown","Forecasted Volume":"50 kg\/yr","latitude":"32.384649","longitude":"-86.305378"},{"Manufacturer":"Denmark's, LLC","Manufacturing Type":"MANUFACTURE","Products":["ACETAMINOPHEN","ACETAMINOPHEN AND CODEINE PHOSPHATE TABLETS","ACYCLOVIR","ACYCLOVIR TABLETS","ALBUTEROL","ALBUTEROL INHALATION AEROSOL","ALBUTEROL SULFATE","ALLOPURINOL","ALLOPURINOL TABLETS","ALPRAZOLAM","ALPRAZOLAM EXTENDED-RELEASE TABLETS","AMOXICILLIN","AMOXICILLIN CAPSULES","ANASTROZOLE","ANASTROZOLE TABLETS","ATORVASTATIN CALCIUM","ATORVASTATIN CALCIUM TABLETS","AZELASTINE HYDROCHLORIDE","BENZPHETAMINE HYDROCHLORIDE","BENZPHETAMINE HYDROCHLORIDE TABLETS","BETAMETHASONE","BETAMETHASONE BENZOATE","BETAMETHASONE DIPROPIONATE OINTMENT","BETAMETHASONE SODIUM PHOSPHATE","BETAMETHASONE VALERATE OINTMENT","BUPRENORPHINE HYDROCHLORIDE","BUPRENORPHINE SUBLINGUAL TABLETS","BUPROPION HYDROBROMIDE EXTENDED-RELEASE TABLETS","BUPROPION HYDROCHLORIDE","BUPROPION HYDROCHLORIDE EXTENDED-RELEASE TABLETS","CEFDINIR","CEFDINIR FOR ORAL SUSPENSION","CETIRIZINE HYDROCHLORIDE","CETIRIZINE HYDROCHLORIDE TABLETS","CHLORHEXIDINE GLUCONATE ORAL RINSE","CIPROFLOXACIN","CIPROFLOXACIN HYDROCHLORIDE","CIPROFLOXACIN TABLETS","CLONIDINE","CLONIDINE HYDROCHLORIDE","CLONIDINE HYDROCHLORIDE TABLETS","CLOPIDOGREL BISULFATE","CLOPIDOGREL TABLETS","CODEINE","CODEINE PHOSPHATE","CYCLOBENZAPRINE HYDROCHLORIDE","CYCLOBENZAPRINE HYDROCHLORIDE TABLETS","DEXAMETHASONE","DEXAMETHASONE TABLETS","DIAZEPAM","DIAZEPAM TABLETS","DICLOFENAC SODIUM","DICLOFENAC SODIUM TOPICAL GEL","DICYCLOMINE HYDROCHLORIDE","DICYCLOMINE HYDROCHLORIDE CAPSULES","DIETHYLPROPION HYDROCHLORIDE","DIETHYLPROPION HYDROCHLORIDE TABLETS","DIFLUNISAL","DIFLUNISAL TABLETS","DOXYCYCLINE","DOXYCYCLINE CAPSULES","DOXYCYCLINE HYCLATE CAPSULES","ESOMEPRAZOLE MAGNESIUM","ESOMEPRAZOLE MAGNESIUM DELAYED-RELEASE CAPSULES","ESOMEPRAZOLE SODIUM","ESOMEPRAZOLE STRONTIUM DELAYED-RELEASE CAPSULES","ETODOLAC","ETODOLAC CAPSULES","ETODOLAC EXTENDED-RELEASE TABLETS","FINASTERIDE","FINASTERIDE TABLETS","FLUTICASONE PROPIONATE","FLUTICASONE PROPIONATE CREAM","GENTAMICIN SULFATE OPHTHALMIC SOLUTION","HYDROCODONE BITARTRATE","HYDROCODONE BITARTRATE AND ACETAMINOPHEN TABLETS","HYDROXYZINE HYDROCHLORIDE","HYDROXYZINE HYDROCHLORIDE TABLETS","HYOSCYAMINE","HYOSCYAMINE SULFATE","INDOMETHACIN","INDOMETHACIN CAPSULES","INDOMETHACIN EXTENDED-RELEASE CAPSULES","INDOMETHACIN SODIUM","LAMOTRIGINE","LAMOTRIGINE TABLETS","LANSOPRAZOLE","LANSOPRAZOLE DELAYED-RELEASE CAPSULES","LIDOCAINE","LIDOCAINE OINTMENT","LISINOPRIL","LISINOPRIL TABLETS","LORAZEPAM","LORAZEPAM TABLETS","LOSARTAN POTASSIUM","LOSARTAN POTASSIUM TABLETS","MELOXICAM","MELOXICAM TABLETS","METFORMIN HYDROCHLORIDE","METFORMIN HYDROCHLORIDE EXTENDED-RELEASE TABLETS","METOLAZONE","METOLAZONE TABLETS","MINOCYCLINE HYDROCHLORIDE","MINOCYCLINE HYDROCHLORIDE CAPSULES","NALTREXONE HYDROCHLORIDE","NALTREXONE HYDROCHLORIDE TABLETS","NAPROXEN","NAPROXEN SODIUM TABLETS","NAPROXEN TABLETS","NITROFURANTOIN","NITROFURANTOIN CAPSULES","OLOPATADINE HYDROCHLORIDE OPHTHALMIC SOLUTION","ONDANSETRON","ONDANSETRON HYDROCHLORIDE","ONDANSETRON ORALLY DISINTEGRATING TABLETS","PHENDIMETRAZINE TARTRATE","PHENDIMETRAZINE TARTRATE TABLETS","PHENTERMINE HYDROCHLORIDE","PHENTERMINE HYDROCHLORIDE TABLETS","PREDNISONE","PREDNISONE TABLETS","PROMETHAZINE HYDROCHLORIDE","PROMETHAZINE HYDROCHLORIDE AND CODEINE PHOSPHATE  ORAL SOLUTION","RALTEGRAVIR POTASSIUM","RALTEGRAVIR TABLETS","ROSUVASTATIN CALCIUM","ROSUVASTATIN TABLETS","SILDENAFIL CITRATE","SILDENAFIL TABLETS","SUCRALFATE","SUCRALFATE TABLETS","TADALAFIL","TADALAFIL TABLETS","TETRACAINE","TETRACAINE HYDROCHLORIDE","TETRACAINE HYDROCHLORIDE OPHTHALMIC SOLUTION","TRAMADOL HYDROCHLORIDE","TRAMADOL HYDROCHLORIDE EXTENDED-RELEASE TABLETS","TRAMADOL HYDROCHLORIDE TABLETS","VALACYCLOVIR HYDROCHLORIDE","VALACYCLOVIR TABLETS","ZOLPIDEM TARTRATE","ZOLPIDEM TARTRATE TABLETS"],"City":"Columbia","Country":"United States","Application Data":"Yes","Activeness Flag":"Unknown","Forecasted Volume":"50 kg\/yr","latitude":"33.968593","longitude":"-81.003152"},{"Manufacturer":"Oxygen Utah, L.L.C.","Manufacturing Type":"MANUFACTURE","Products":["OXYGEN"],"City":"Irvine","Country":"United States","Application Data":"Yes","Activeness Flag":"Unknown","Forecasted Volume":"50 kg\/yr","latitude":"33.687522","longitude":"-117.837368"},{"Manufacturer":"Airgas Usa, LLC","Manufacturing Type":"MANUFACTURE","Products":["NITROGEN","OXYGEN"],"City":"Richmond","Country":"United States","Application Data":"Yes","Activeness Flag":"Unknown","Forecasted Volume":"50 kg\/yr","latitude":"37.504079","longitude":"-77.430643"},{"Manufacturer":"Praxair Distribution, Inc.","Manufacturing Type":"MANUFACTURE","Products":["OXYGEN"],"City":"Portland","Country":"United States","Application Data":"Yes","Activeness Flag":"Unknown","Forecasted Volume":"50 kg\/yr","latitude":"45.533647","longitude":"-122.59742"},{"Manufacturer":"Carelinc Medical Equipment & Supply Co, LLC","Manufacturing Type":"MANUFACTURE","Products":["OXYGEN"],"City":"North Charleston","Country":"United States","Application Data":"Yes","Activeness Flag":"Unknown","Forecasted Volume":"50 kg\/yr","latitude":"32.92415","longitude":"-80.069118"},{"Manufacturer":"SUMITOMO CHEMICAL COMPANY, LIMITED","Manufacturing Type":"MANUFACTURE","Products":["ATROPINE","ATROPINE SULFATE","ATROPINE SULFATE INJECTION","AZITHROMYCIN","AZITHROMYCIN FOR INJECTION","BACITRACIN","BACITRACIN FOR INJECTION","BACTERIOSTATIC SODIUM CHLORIDE INJECTION","BENZTROPINE MESYLATE","BENZTROPINE MESYLATE INJECTION","BLEOMYCIN FOR INJECTION","BLEOMYCIN SULFATE","BUPIVACAINE","BUPIVACAINE HYDROCHLORIDE","BUPIVACAINE HYDROCHLORIDE AND EPINEPHRINE INJECTION","BUPIVACAINE HYDROCHLORIDE INJECTION","CARBOPLATIN","CARBOPLATIN FOR INJECTION","CARBOPLATIN INJECTION","CHLORAMPHENICOL","CHLORAMPHENICOL PALMITATE","CHLORAMPHENICOL SODIUM SUCCINATE","CHLORAMPHENICOL SODIUM SUCCINATE FOR INJECTION","CHLOROPROCAINE HYDROCHLORIDE","CHLOROPROCAINE HYDROCHLORIDE INJECTION","CHORIONIC GONADOTROPIN","CHORIONIC GONADOTROPIN FOR INJECTION","CISPLATIN","CISPLATIN INJECTION","CLADRIBINE","CLADRIBINE INJECTION","COLISTIMETHATE FOR INJECTION","COLISTIMETHATE SODIUM","COLISTIN SULFATE","CYANOCOBALAMIN","CYANOCOBALAMIN INJECTION","CYTARABINE","CYTARABINE FOR INJECTION","DACARBAZINE","DACARBAZINE FOR INJECTION","DAPTOMYCIN","DAPTOMYCIN FOR INJECTION","DEXAMETHASONE","DEXAMETHASONE SODIUM PHOSPHATE INJECTION","DEXMEDETOMIDINE INJECTION","DIBASIC POTASSIUM PHOSPHATE","DOXORUBICIN HYDROCHLORIDE","DOXORUBICIN HYDROCHLORIDE FOR INJECTION","DOXORUBICIN HYDROCHLORIDE INJECTION","DOXORUBICIN HYDROCHLORIDE PEGYLATED LIPOSOME INJECTION","DOXYCYCLINE","DOXYCYCLINE FOR INJECTION","DOXYCYCLINE HYCLATE","EPINEPHRINE","ETOPOSIDE","ETOPOSIDE INJECTION","ETOPOSIDE PHOSPHATE","FAMOTIDINE","FAMOTIDINE INJECTION","FLOXURIDINE","FLOXURIDINE FOR INJECTION","FLUDARABINE PHOSPHATE","FLUDARABINE PHOSPHATE FOR INJECTION","FLUDARABINE PHOSPHATE INJECTION","FLUMAZENIL","FLUMAZENIL INJECTION","FLUOROURACIL","FLUOROURACIL INJECTION","FLUPHENAZINE DECANOATE","FLUPHENAZINE ENANTHATE","FLUPHENAZINE HYDROCHLORIDE","FLUPHENAZINE HYDROCHLORIDE INJECTION","FOLIC ACID","FOLIC ACID INJECTION","FOSAPREPITANT DIMEGLUMINE","FOSAPREPITANT FOR INJECTION","GEMCITABINE FOR INJECTION","GEMCITABINE HYDROCHLORIDE","GENTAMICIN INJECTION","GLUCAGON","GLUCAGON FOR INJECTION","GLYCOPYRROLATE","GLYCOPYRROLATE INJECTION","HALOPERIDOL","HALOPERIDOL DECANOATE","HALOPERIDOL INJECTION","HEPARIN SODIUM","HEPARIN SODIUM INJECTION","HYDRALAZINE HYDROCHLORIDE","HYDRALAZINE HYDROCHLORIDE INJECTION","IFOSFAMIDE","IFOSFAMIDE FOR INJECTION","IFOSFAMIDE INJECTION","IRINOTECAN HYDROCHLORIDE","IRINOTECAN HYDROCHLORIDE INJECTION","KETOROLAC TROMETHAMINE","KETOROLAC TROMETHAMINE INJECTION","LEUCOVORIN CALCIUM","LEUCOVORIN CALCIUM FOR INJECTION","LEUCOVORIN CALCIUM INJECTION","LEVOTHYROXINE SODIUM","LEVOTHYROXINE SODIUM FOR INJECTION","LIDOCAINE","LIDOCAINE HYDROCHLORIDE","LIDOCAINE HYDROCHLORIDE AND EPINEPHRINE INJECTION","LIDOCAINE HYDROCHLORIDE INJECTION","MAGNESIUM SULFATE","MAGNESIUM SULFATE IN DEXTROSE INJECTION","MAGNESIUM SULFATE INJECTION","MEPIVACAINE HYDROCHLORIDE","MEPIVACAINE HYDROCHLORIDE INJECTION","MESNA","MESNA INJECTION","METHOTREXATE","METHOTREXATE FOR INJECTION","METHOTREXATE INJECTION","METHYLPREDNISOLONE","METHYLPREDNISOLONE ACETATE INJECTABLE SUSPENSION","METHYLPREDNISOLONE SODIUM SUCCINATE","METHYLPREDNISOLONE SODIUM SUCCINATE FOR INJECTION","MITOXANTRONE HYDROCHLORIDE","MITOXANTRONE INJECTION","MONOBASIC POTASSIUM PHOSPHATE","NEOSTIGMINE BROMIDE","NEOSTIGMINE METHYLSULFATE","NEOSTIGMINE METHYLSULFATE INJECTION","OCTREOTIDE ACETATE","OCTREOTIDE ACETATE FOR INJECTABLE SUSPENSION","OXALIPLATIN","OXALIPLATIN FOR INJECTION","OXALIPLATIN INJECTION","PACLITAXEL","PACLITAXEL INJECTION","PENTAMIDINE ISETHIONATE","PHENYLEPHRINE HYDROCHLORIDE","PHENYLEPHRINE HYDROCHLORIDE INJECTION","POLYMYXIN B FOR INJECTION","PROGESTERONE","PROGESTERONE INJECTION","PROTAMINE SULFATE","PROTAMINE SULFATE INJECTION","RIFAMPIN","RIFAMPIN FOR INJECTION","ROPIVACAINE HYDROCHLORIDE","ROPIVACAINE HYDROCHLORIDE INJECTION","SODIUM ACETATE","SODIUM ACETATE INJECTION","SODIUM CHLORIDE","SODIUM CHLORIDE INJECTION","TERBUTALINE SULFATE","TERBUTALINE SULFATE INJECTION","TOBRAMYCIN","TOBRAMYCIN INJECTION","TOBRAMYCIN SULFATE","TRANEXAMIC ACID","TRANEXAMIC ACID INJECTION","VANCOMYCIN","VANCOMYCIN HYDROCHLORIDE","VANCOMYCIN HYDROCHLORIDE FOR INJECTION","VANCOMYCIN INJECTION","VINBLASTINE SULFATE"],"City":"Clearwater","Country":"United States","Application Data":"Yes","Activeness Flag":"Unknown","Forecasted Volume":"50 kg\/yr","latitude":"27.877509","longitude":"-82.7091"},{"Manufacturer":"LABORATORIOS GRIFOLS SA","Manufacturing Type":"MANUFACTURE","Products":["OXYGEN"],"City":"Malvern","Country":"United States","Application Data":"Yes","Activeness Flag":"Unknown","Forecasted Volume":"50 kg\/yr","latitude":"40.06046","longitude":"-75.544747"},{"Manufacturer":"Matheson Tri-Gas, Inc.","Manufacturing Type":"MANUFACTURE","Products":["OXYGEN"],"City":"Garland","Country":"United States","Application Data":"Yes","Activeness Flag":"Unknown","Forecasted Volume":"50 kg\/yr","latitude":"32.888478","longitude":"-96.673531"},{"Manufacturer":"Specgx LLC","Manufacturing Type":"API MANUFACTURE","Products":["ACETAMINOPHEN","AMIKACIN","AMIKACIN SULFATE INJECTION","ATROPINE","ATROPINE SULFATE","ATROPINE SULFATE INJECTION","BACTERIOSTATIC SODIUM CHLORIDE INJECTION","BUMETANIDE","BUMETANIDE INJECTION","BUTALBITAL","BUTALBITAL, ACETAMINOPHEN, AND CAFFEINE CAPSULES","CAFFEINE","CAFFEINE CITRATE","CAFFEINE CITRATE INJECTION","CARISOPRODOL","CARISOPRODOL TABLETS","CORTISONE ACETATE","CORTISONE ACETATE TABLETS","DEXAMETHASONE","DEXAMETHASONE SODIUM PHOSPHATE INJECTION","DICYCLOMINE HYDROCHLORIDE","DICYCLOMINE HYDROCHLORIDE INJECTION","DILTIAZEM HYDROCHLORIDE","DILTIAZEM HYDROCHLORIDE FOR INJECTION","DILTIAZEM HYDROCHLORIDE INJECTION","DIPHENHYDRAMINE HYDROCHLORIDE","DIPHENHYDRAMINE HYDROCHLORIDE INJECTION","DIPYRIDAMOLE","DIPYRIDAMOLE INJECTION","DOXAPRAM HYDROCHLORIDE","DOXAPRAM HYDROCHLORIDE INJECTION","DOXYCYCLINE","DOXYCYCLINE CAPSULES","DOXYCYCLINE HYCLATE","DOXYCYCLINE HYCLATE CAPSULES","EPHEDRINE","EPHEDRINE SULFATE","EPHEDRINE SULFATE INJECTION","ERGOTAMINE TARTRATE","ERGOTAMINE TARTRATE AND CAFFEINE TABLETS","ESMOLOL HYDROCHLORIDE","ESMOLOL HYDROCHLORIDE INJECTION","FAMOTIDINE","FAMOTIDINE INJECTION","FENTANYL","FENTANYL CITRATE","FENTANYL CITRATE INJECTION","FOSPHENYTOIN SODIUM","FOSPHENYTOIN SODIUM INJECTION","GLYCOPYRROLATE","GLYCOPYRROLATE INJECTION","HEPARIN SODIUM","HEPARIN SODIUM INJECTION","HYDROCHLOROTHIAZIDE","HYDROMORPHONE HYDROCHLORIDE","HYDROMORPHONE HYDROCHLORIDE INJECTION","ISONIAZID","ISONIAZID TABLETS","KETOROLAC TROMETHAMINE","KETOROLAC TROMETHAMINE INJECTION","LISINOPRIL","LISINOPRIL AND HYDROCHLOROTHIAZIDE TABLETS","LORAZEPAM","LORAZEPAM INJECTION","MEPERIDINE HYDROCHLORIDE","MEPERIDINE HYDROCHLORIDE INJECTION","METHOCARBAMOL","METHOCARBAMOL INJECTION","METHOCARBAMOL TABLETS","MIDAZOLAM","MIDAZOLAM HYDROCHLORIDE","MIDAZOLAM INJECTION","MILRINONE","MILRINONE LACTATE INJECTION","MORPHINE SULFATE","MORPHINE SULFATE INJECTION","NALOXONE HYDROCHLORIDE","NALOXONE HYDROCHLORIDE INJECTION","NEOSTIGMINE BROMIDE","NEOSTIGMINE METHYLSULFATE","NEOSTIGMINE METHYLSULFATE INJECTION","OCTREOTIDE ACETATE","OCTREOTIDE ACETATE FOR INJECTABLE SUSPENSION","ONDANSETRON","ONDANSETRON HYDROCHLORIDE","ONDANSETRON INJECTION","ORPHENADRINE CITRATE","ORPHENADRINE CITRATE INJECTION","PHENOBARBITAL","PHENOBARBITAL SODIUM","PHENOBARBITAL SODIUM FOR INJECTION","PHENOBARBITAL SODIUM INJECTION","PHENYLEPHRINE HYDROCHLORIDE","PHENYLEPHRINE HYDROCHLORIDE INJECTION","PHENYTOIN","PHENYTOIN SODIUM","PHENYTOIN SODIUM INJECTION","PROCHLORPERAZINE","PROCHLORPERAZINE EDISYLATE","PROCHLORPERAZINE EDISYLATE INJECTION","PROCHLORPERAZINE MALEATE","PROMETHAZINE HYDROCHLORIDE","PROMETHAZINE HYDROCHLORIDE INJECTION","PROPOFOL","PROPOFOL INJECTABLE EMULSION","SODIUM CHLORIDE","SODIUM CHLORIDE INJECTION","SUFENTANIL CITRATE","SUFENTANIL CITRATE INJECTION"],"City":"Vero Beach","Country":"United States","Application Data":"Yes","Activeness Flag":"Unknown","Forecasted Volume":"50 kg\/yr","latitude":"27.60732","longitude":"-80.387962"},{"Manufacturer":"Airgas Usa, LLC","Manufacturing Type":"MANUFACTURE","Products":["CLONAZEPAM","CLONAZEPAM TABLETS"],"City":"Lancaster","Country":"United States","Application Data":"Yes","Activeness Flag":"Unknown","Forecasted Volume":"50 kg\/yr","latitude":"40.055043","longitude":"-76.327817"},{"Manufacturer":"Messer LLC","Manufacturing Type":"MANUFACTURE","Products":["ERTAPENEM FOR INJECTION","ERTAPENEM SODIUM","MEROPENEM","MEROPENEM FOR INJECTION"],"City":"Elizabethtown","Country":"United States","Application Data":"Yes","Activeness Flag":"Unknown","Forecasted Volume":"50 kg\/yr","latitude":"37.682795","longitude":"-85.901949"},{"Manufacturer":"CELLTRION PHARM, INC","Manufacturing Type":"MANUFACTURE","Products":["DOXYCYCLINE","DOXYCYCLINE CAPSULES","DOXYCYCLINE HYCLATE CAPSULES"],"City":"Raleigh","Country":"United States","Application Data":"Yes","Activeness Flag":"Unknown","Forecasted Volume":"50 kg\/yr","latitude":"35.878298","longitude":"-78.59233"},{"Manufacturer":"APTUIT (OXFORD) LIMITED","Manufacturing Type":"MANUFACTURE","Products":["OXYGEN"],"City":"Burton","Country":"United States","Application Data":"Yes","Activeness Flag":"Unknown","Forecasted Volume":"50 kg\/yr","latitude":"43.026668","longitude":"-83.615222"},{"Manufacturer":"Norco, Inc.","Manufacturing Type":"MANUFACTURE","Products":["CARBON DIOXIDE","HELIUM","NITROGEN","NITROUS OXIDE","OXYGEN"],"City":"Claymont","Country":"United States","Application Data":"Yes","Activeness Flag":"Unknown","Forecasted Volume":"50 kg\/yr","latitude":"39.810525","longitude":"-75.438917"},{"Manufacturer":"Ajinomoto Omnichem","Manufacturing Type":"MANUFACTURE","Products":["INSULIN HUMAN"],"City":"Williston","Country":"United States","Application Data":"Yes","Activeness Flag":"Unknown","Forecasted Volume":"50 kg\/yr","latitude":"44.456434","longitude":"-73.12435"},{"Manufacturer":"Linde Gas North America LLC","Manufacturing Type":"MANUFACTURE","Products":["CLOBETASOL PROPIONATE","CLOBETASOL PROPIONATE CREAM"],"City":"Smyrna","Country":"United States","Application Data":"Yes","Activeness Flag":"Unknown","Forecasted Volume":"50 kg\/yr","latitude":"33.896402","longitude":"-84.489458"},{"Manufacturer":"Messer LLC","Manufacturing Type":"MANUFACTURE","Products":["ALLOPURINOL","ALLOPURINOL TABLETS","AMITRIPTYLINE HYDROCHLORIDE","AMITRIPTYLINE HYDROCHLORIDE TABLETS","ANASTROZOLE","ANASTROZOLE TABLETS","ARIPIPRAZOLE","ARIPIPRAZOLE TABLETS","ATORVASTATIN CALCIUM","ATORVASTATIN CALCIUM TABLETS","ATROPINE","ATROPINE SULFATE","ATROPINE SULFATE INJECTION","AZACITIDINE","BUSULFAN","BUSULFAN INJECTION","CAPECITABINE","CAPECITABINE TABLETS","CARBOPLATIN","CARBOPLATIN FOR INJECTION","CARBOPLATIN INJECTION","CISPLATIN","CISPLATIN INJECTION","CLOBAZAM","CLOBAZAM TABLETS","CLONAZEPAM","CLONAZEPAM TABLETS","CLOPIDOGREL BISULFATE","CLOPIDOGREL TABLETS","DECITABINE","DECITABINE FOR INJECTION","DEXMEDETOMIDINE INJECTION","DOCETAXEL","DOCETAXEL INJECTION","DOFETILIDE","ESCITALOPRAM OXALATE","ESCITALOPRAM TABLETS","FINASTERIDE","FINASTERIDE TABLETS","FLUOROURACIL","FLUOROURACIL INJECTION","GEMCITABINE FOR INJECTION","GEMCITABINE HYDROCHLORIDE","GLIMEPIRIDE","GLIMEPIRIDE TABLETS","HYDROCHLOROTHIAZIDE","HYDROCHLOROTHIAZIDE TABLETS","LISINOPRIL","LISINOPRIL TABLETS","METHOTREXATE","METHOTREXATE FOR INJECTION","METHOTREXATE INJECTION","METHOTREXATE TABLETS","MITOMYCIN","MITOMYCIN FOR INJECTION","MONTELUKAST SODIUM","MONTELUKAST SODIUM TABLETS","MYCOPHENOLATE MOFETIL","MYCOPHENOLATE MOFETIL CAPSULES","OXALIPLATIN","OXALIPLATIN FOR INJECTION","OXALIPLATIN INJECTION","QUETIAPINE FUMARATE","QUETIAPINE TABLETS","ROPINIROLE HYDROCHLORIDE","ROPINIROLE TABLETS","ROSUVASTATIN CALCIUM","ROSUVASTATIN TABLETS","SERTRALINE HYDROCHLORIDE","SERTRALINE HYDROCHLORIDE TABLETS","SIMVASTATIN","SIMVASTATIN TABLETS","SPIRONOLACTONE","SPIRONOLACTONE TABLETS","TADALAFIL","TADALAFIL TABLETS","TEMOZOLOMIDE","TEMOZOLOMIDE CAPSULES","TIGECYCLINE","TIGECYCLINE FOR INJECTION","TRAZODONE HYDROCHLORIDE","TRAZODONE HYDROCHLORIDE TABLETS","VIGABATRIN","VIGABATRIN FOR ORAL SOLUTION"],"City":"Fowler","Country":"United States","Application Data":"Yes","Activeness Flag":"Unknown","Forecasted Volume":"50 kg\/yr","latitude":"36.605327","longitude":"-119.649232"},{"Manufacturer":"Air Products and Chemicals, Inc.","Manufacturing Type":"MANUFACTURE","Products":["ASCORBIC ACID","BIOTIN","CHOLECALCIFEROL","CYANOCOBALAMIN","DEXPANTHENOL","FOLIC ACID","NIACINAMIDE","PHYTONADIONE","PYRIDOXINE HYDROCHLORIDE","RIBOFLAVIN","THIAMINE HYDROCHLORIDE","VITAMIN A"],"City":"Albuquerque","Country":"United States","Application Data":"Yes","Activeness Flag":"Unknown","Forecasted Volume":"50 kg\/yr","latitude":"35.114935","longitude":"-106.627267"},{"Manufacturer":"CADILA HEALTHCARE LIMITED","Manufacturing Type":"MANUFACTURE","Products":["OXYGEN"],"City":"Tucson","Country":"United States","Application Data":"Yes","Activeness Flag":"Unknown","Forecasted Volume":"50 kg\/yr","latitude":"32.131468","longitude":"-110.854983"},{"Manufacturer":"CIPLA LIMITED","Manufacturing Type":"MANUFACTURE","Products":["OXYGEN"],"City":"Lansing","Country":"United States","Application Data":"Yes","Activeness Flag":"Unknown","Forecasted Volume":"50 kg\/yr","latitude":"42.683211","longitude":"-84.646558"},{"Manufacturer":"POWDER PHARMACEUTICALS INCORPORATED","Manufacturing Type":"MANUFACTURE","Products":["CARBON DIOXIDE"],"City":"Charleston","Country":"United States","Application Data":"Yes","Activeness Flag":"Unknown","Forecasted Volume":"50 kg\/yr","latitude":"38.347517","longitude":"-81.627908"},{"Manufacturer":"PIRAMAL PHARMA LIMITED","Manufacturing Type":"MANUFACTURE","Products":["NADOLOL","NADOLOL TABLETS"],"City":"Salt Lake City","Country":"United States","Application Data":"Yes","Activeness Flag":"Unknown","Forecasted Volume":"50 kg\/yr","latitude":"40.747428","longitude":"-111.938935"},{"Manufacturer":"DR REDDY'S LABORATORIES LIMITED","Manufacturing Type":"MANUFACTURE","Products":["EPINEPHRINE","EPINEPHRINE INJECTION"],"City":"Clovis","Country":"United States","Application Data":"Yes","Activeness Flag":"Unknown","Forecasted Volume":"50 kg\/yr","latitude":"34.39967","longitude":"-103.196248"},{"Manufacturer":"Par Pharmaceutical, Inc.","Manufacturing Type":"MANUFACTURE","Products":["NITROGEN"],"City":"Coatesville","Country":"United States","Application Data":"Yes","Activeness Flag":"Unknown","Forecasted Volume":"50 kg\/yr","latitude":"39.9806","longitude":"-75.8262"},{"Manufacturer":"Maine OXY-Acetylene Supply Company","Manufacturing Type":"API MANUFACTURE","Products":["OLOPATADINE HYDROCHLORIDE OPHTHALMIC SOLUTION"],"City":"Decatur","Country":"United States","Application Data":"Yes","Activeness Flag":"Unknown","Forecasted Volume":"50 kg\/yr","latitude":"34.608307","longitude":"-87.037485"},{"Manufacturer":"Armscare, Inc.","Manufacturing Type":"MANUFACTURE","Products":["ETHINYL ESTRADIOL","PROGESTERONE"],"City":"Toledo","Country":"United States","Application Data":"Yes","Activeness Flag":"Unknown","Forecasted Volume":"50 kg\/yr","latitude":"41.721429","longitude":"-83.572994"},{"Manufacturer":"Currier Drug Inc","Manufacturing Type":"MANUFACTURE","Products":["OXYGEN"],"City":"Pekin","Country":"United States","Application Data":"Yes","Activeness Flag":"Unknown","Forecasted Volume":"50 kg\/yr","latitude":"40.588713","longitude":"-89.640958"},{"Manufacturer":"Airgas Usa, LLC","Manufacturing Type":"MANUFACTURE","Products":["NITROGEN","OXYGEN"],"City":"Saint Louis","Country":"United States","Application Data":"Yes","Activeness Flag":"Unknown","Forecasted Volume":"50 kg\/yr","latitude":"38.688284","longitude":"-90.398599"},{"Manufacturer":"Airgas Usa, LLC","Manufacturing Type":"API MANUFACTURE","Products":["OXYGEN"],"City":"Fort Walton Beach","Country":"United States","Application Data":"Yes","Activeness Flag":"Unknown","Forecasted Volume":"50 kg\/yr","latitude":"30.446565","longitude":"-86.604815"},{"Manufacturer":"New Bedford Welding Supply, Inc.","Manufacturing Type":"MANUFACTURE","Products":["OXYGEN"],"City":"Bensalem","Country":"United States","Application Data":"Yes","Activeness Flag":"Unknown","Forecasted Volume":"50 kg\/yr","latitude":"40.085156","longitude":"-74.922377"},{"Manufacturer":"Advanced Pharmaceutical Technology, Inc.","Manufacturing Type":"API MANUFACTURE","Products":["AMITRIPTYLINE HYDROCHLORIDE","AMITRIPTYLINE HYDROCHLORIDE TABLETS","BUPROPION HYDROBROMIDE EXTENDED-RELEASE TABLETS","BUPROPION HYDROCHLORIDE","BUPROPION HYDROCHLORIDE EXTENDED-RELEASE TABLETS","CLONIDINE","CLONIDINE HYDROCHLORIDE","CLONIDINE HYDROCHLORIDE EXTENDED-RELEASE TABLETS","DILTIAZEM HYDROCHLORIDE","DILTIAZEM HYDROCHLORIDE EXTENDED-RELEASE CAPSULES","DUTASTERIDE","DUTASTERIDE AND TAMSULOSIN HYDROCHLORIDE CAPSULES","GLIPIZIDE","GLIPIZIDE EXTENDED-RELEASE TABLETS","PERPHENAZINE","PERPHENAZINE TABLETS","PRAMIPEXOLE DIHYDROCHLORIDE","PRAMIPEXOLE DIHYDROCHLORIDE EXTENDED-RELEASE TABLETS","TAMSULOSIN HYDROCHLORIDE"],"City":"Grants","Country":"United States","Application Data":"Yes","Activeness Flag":"Unknown","Forecasted Volume":"50 kg\/yr","latitude":"35.154806","longitude":"-107.818311"},{"Manufacturer":"Peninsula Home Health Care Inc","Manufacturing Type":"MANUFACTURE","Products":["OXYGEN"],"City":"West Union","Country":"United States","Application Data":"Yes","Activeness Flag":"Unknown","Forecasted Volume":"50 kg\/yr","latitude":"38.785563","longitude":"-83.558181"},{"Manufacturer":"RES-Care, Inc.","Manufacturing Type":"MANUFACTURE","Products":["CALCIUM CHLORIDE","CALCIUM CHLORIDE INJECTION","SODIUM CHLORIDE"],"City":"Marion","Country":"United States","Application Data":"Yes","Activeness Flag":"Unknown","Forecasted Volume":"50 kg\/yr","latitude":"35.834007","longitude":"-82.001403"},{"Manufacturer":"Carelinc Medical Equipment & Supply Co., L.L.C.","Manufacturing Type":"MANUFACTURE","Products":["OXYGEN"],"City":"Santa Ana","Country":"United States","Application Data":"Yes","Activeness Flag":"Unknown","Forecasted Volume":"50 kg\/yr","latitude":"33.726871","longitude":"-117.84861"},{"Manufacturer":"Coastal Welding Supply Inc","Manufacturing Type":"MANUFACTURE","Products":["OXYGEN"],"City":"Medford","Country":"United States","Application Data":"Yes","Activeness Flag":"Unknown","Forecasted Volume":"50 kg\/yr","latitude":"42.352321","longitude":"-122.898014"},{"Manufacturer":"Kent Truck-Trailer Service, L.L.C.","Manufacturing Type":"MANUFACTURE","Products":["OXYGEN"],"City":"Duarte","Country":"United States","Application Data":"Yes","Activeness Flag":"Unknown","Forecasted Volume":"50 kg\/yr","latitude":"34.123419","longitude":"-117.977476"},{"Manufacturer":"ZYDUS HOSPIRA ONCOLOGY PRIVATE LIMITED","Manufacturing Type":"MANUFACTURE","Products":["NITROGEN","OXYGEN"],"City":"Cass City","Country":"United States","Application Data":"Yes","Activeness Flag":"Unknown","Forecasted Volume":"50 kg\/yr","latitude":"43.57042","longitude":"-83.228342"},{"Manufacturer":"Tech Air of Naugatuck LLC","Manufacturing Type":"MANUFACTURE","Products":["OXYGEN"],"City":"Claremont","Country":"United States","Application Data":"Yes","Activeness Flag":"Unknown","Forecasted Volume":"50 kg\/yr","latitude":"43.363152","longitude":"-72.316062"},{"Manufacturer":"Airgas, Inc.","Manufacturing Type":"MANUFACTURE","Products":["HYALURONIDASE","OCRELIZUMAB","RITUXIMAB"],"City":"Nashville","Country":"United States","Application Data":"Yes","Activeness Flag":"Unknown","Forecasted Volume":"50 kg\/yr","latitude":"36.151352","longitude":"-86.77253"},{"Manufacturer":"Ali-Rob, Inc.","Manufacturing Type":"MANUFACTURE","Products":["OXYGEN"],"City":"Kent","Country":"United States","Application Data":"Yes","Activeness Flag":"Unknown","Forecasted Volume":"50 kg\/yr","latitude":"47.402645","longitude":"-122.232329"},{"Manufacturer":"S. J. Smith Co., Inc.","Manufacturing Type":"MANUFACTURE","Products":["VERTEPORFIN","VERTEPORFIN FOR INJECTION"],"City":"Minneapolis","Country":"United States","Application Data":"Yes","Activeness Flag":"Unknown","Forecasted Volume":"50 kg\/yr","latitude":"44.969345","longitude":"-93.261104"},{"Manufacturer":"Ineos Pigments Asu LLC","Manufacturing Type":"MANUFACTURE","Products":["NITROGEN","OXYGEN"],"City":"Cody","Country":"United States","Application Data":"Yes","Activeness Flag":"Unknown","Forecasted Volume":"50 kg\/yr","latitude":"44.526061","longitude":"-109.073724"},{"Manufacturer":"American Homecare Supply NY","Manufacturing Type":"MANUFACTURE","Products":["DEXTROAMPHETAMINE SULFATE","DEXTROAMPHETAMINE SULFATE TABLETS","FLAVOXATE HYDROCHLORIDE","FLAVOXATE HYDROCHLORIDE TABLETS","METHSCOPOLAMINE BROMIDE","METHSCOPOLAMINE BROMIDE TABLETS"],"City":"Glasgow","Country":"United States","Application Data":"Yes","Activeness Flag":"Unknown","Forecasted Volume":"50 kg\/yr","latitude":"48.189492","longitude":"-106.636322"},{"Manufacturer":"Midwest Medical Service, Inc.","Manufacturing Type":"MANUFACTURE","Products":["ARFORMOTEROL INHALATION SOLUTION","ARFORMOTEROL TARTRATE","ATOVAQUONE","ATOVAQUONE AND PROGUANIL HYDROCHLORIDE TABLETS","CHLORZOXAZONE","CHLORZOXAZONE TABLETS","FULVESTRANT","FULVESTRANT INJECTION","ICATIBANT ACETATE","ICATIBANT INJECTION","NAPROXEN","NAPROXEN SODIUM","NAPROXEN SODIUM TABLETS","NAPROXEN TABLETS","PRAVASTATIN SODIUM","PRAVASTATIN SODIUM TABLETS","PROGUANIL HYDROCHLORIDE","ROSUVASTATIN CALCIUM","ROSUVASTATIN TABLETS","ZONISAMIDE","ZONISAMIDE CAPSULES"],"City":"Plainville","Country":"United States","Application Data":"Yes","Activeness Flag":"Unknown","Forecasted Volume":"50 kg\/yr","latitude":"42.0205","longitude":"-71.315229"},{"Manufacturer":"Pharmasol Corporation","Manufacturing Type":"MANUFACTURE","Products":["ACETAMINOPHEN","ASPIRIN","BUTALBITAL","BUTALBITAL, ACETAMINOPHEN, AND CAFFEINE CAPSULES","BUTALBITAL, ACETAMINOPHEN, AND CAFFEINE TABLETS","BUTALBITAL, ACETAMINOPHEN, CAFFEINE, AND CODEINE PHOSPHATE CAPSULES","BUTALBITAL, ASPIRIN, CAFFEINE, AND CODEINE PHOSPHATE CAPSULES","CAFFEINE","CHLORPHENIRAMINE MALEATE","CODEINE","CODEINE PHOSPHATE","GLYCOPYRROLATE","GLYCOPYRROLATE TABLETS","MECAMYLAMINE HYDROCHLORIDE","MECAMYLAMINE HYDROCHLORIDE TABLETS","NABUMETONE","NABUMETONE TABLETS","POLYETHYLENE GLYCOL 3350","POLYETHYLENE GLYCOL 3350 FOR ORAL SOLUTION","URSODIOL","URSODIOL CAPSULES"],"City":"Duluth","Country":"United States","Application Data":"Yes","Activeness Flag":"Unknown","Forecasted Volume":"50 kg\/yr","latitude":"46.751188","longitude":"-92.145915"},{"Manufacturer":"Airgas Usa, LLC","Manufacturing Type":"MANUFACTURE","Products":["NITROGEN","OXYGEN"],"City":"Palm Desert","Country":"United States","Application Data":"Yes","Activeness Flag":"Unknown","Forecasted Volume":"50 kg\/yr","latitude":"33.721559","longitude":"-116.368098"},{"Manufacturer":"Arcet Equipment Company","Manufacturing Type":"MANUFACTURE","Products":["OXYGEN"],"City":"San Marcos","Country":"United States","Application Data":"Yes","Activeness Flag":"Unknown","Forecasted Volume":"50 kg\/yr","latitude":"33.144841","longitude":"-117.196806"},{"Manufacturer":"American Welding & Gas, Inc.","Manufacturing Type":"MANUFACTURE","Products":["BUSPIRONE HYDROCHLORIDE","BUSPIRONE HYDROCHLORIDE TABLETS","CARISOPRODOL","CARISOPRODOL TABLETS","DIPYRIDAMOLE","DIPYRIDAMOLE TABLETS","HYDROCHLOROTHIAZIDE","HYDROCHLOROTHIAZIDE TABLETS","IMIPRAMINE HYDROCHLORIDE","IMIPRAMINE HYDROCHLORIDE TABLETS","METHOCARBAMOL","METHOCARBAMOL TABLETS","PRIMIDONE","PRIMIDONE TABLETS","SOTALOL HYDROCHLORIDE","SOTALOL HYDROCHLORIDE TABLETS","SPIRONOLACTONE","SPIRONOLACTONE TABLETS"],"City":"Piscataway","Country":"United States","Application Data":"Yes","Activeness Flag":"Unknown","Forecasted Volume":"50 kg\/yr","latitude":"40.552197","longitude":"-74.475127"},{"Manufacturer":"Airgas Usa, LLC","Manufacturing Type":"MANUFACTURE","Products":["AGALSIDASE BETA","AGALSIDASE BETA FOR INJECTION"],"City":"Barceloneta","Country":"United States","Application Data":"Yes","Activeness Flag":"Unknown","Forecasted Volume":"50 kg\/yr","latitude":"18.4399","longitude":"-66.555"},{"Manufacturer":"Deborah Stubblefield","Manufacturing Type":"MANUFACTURE","Products":["CARBON DIOXIDE","HELIUM","NITROGEN","NITROUS OXIDE","OXYGEN"],"City":"Barceloneta","Country":"United States","Application Data":"Yes","Activeness Flag":"Unknown","Forecasted Volume":"50 kg\/yr","latitude":"18.4399","longitude":"-66.555"},{"Manufacturer":"Novo Nordisk Inc.","Manufacturing Type":"MANUFACTURE","Products":["ACYCLOVIR","ACYCLOVIR OINTMENT","ALBUTEROL","ALBUTEROL ORAL SOLUTION","ALBUTEROL SULFATE","BETAMETHASONE","BETAMETHASONE BENZOATE","BETAMETHASONE CREAM","BETAMETHASONE DIPROPIONATE CREAM","BETAMETHASONE DIPROPIONATE LOTION","BETAMETHASONE DIPROPIONATE OINTMENT","BETAMETHASONE SODIUM PHOSPHATE","BETAMETHASONE VALERATE CREAM","BETAMETHASONE VALERATE LOTION","BETAMETHASONE VALERATE OINTMENT","CAFFEINE","CALCIPOTRIENE","CALCIPOTRIENE TOPICAL SOLUTION","CICLOPIROX","CICLOPIROX OLAMINE","CICLOPIROX OLAMINE CREAM","CICLOPIROX TOPICAL SOLUTION","CLOBETASOL PROPIONATE","CLOBETASOL PROPIONATE CREAM","CLOBETASOL PROPIONATE OINTMENT","CLOBETASOL PROPIONATE TOPICAL SOLUTION","DESONIDE","DESONIDE CREAM","DESOXIMETASONE","DESOXIMETASONE CREAM","DESOXIMETASONE OINTMENT","ERGOTAMINE TARTRATE","ERGOTAMINE TARTRATE AND CAFFEINE SUPPOSITORIES","FLUOCINOLONE ACETONIDE","FLUOCINOLONE ACETONIDE CREAM","FLUOCINOLONE ACETONIDE OINTMENT","FLUOCINOLONE ACETONIDE TOPICAL SOLUTION","FLUOCINONIDE","FLUOCINONIDE CREAM","FLUOCINONIDE TOPICAL SOLUTION","FLUTICASONE PROPIONATE","FLUTICASONE PROPIONATE CREAM","FLUTICASONE PROPIONATE OINTMENT","GENTAMICIN SULFATE CREAM","GENTAMICIN SULFATE OINTMENT","HALOBETASOL PROPIONATE","HYDROCORTISONE","HYDROCORTISONE ACETATE","HYDROCORTISONE ACETATE OINTMENT","HYDROCORTISONE BUTYRATE OINTMENT","HYDROCORTISONE HEMISUCCINATE","HYDROCORTISONE OINTMENT","HYDROCORTISONE SODIUM SUCCINATE","HYDROCORTISONE VALERATE","HYDROCORTISONE VALERATE OINTMENT","INDOMETHACIN","INDOMETHACIN SODIUM","INDOMETHACIN SUPPOSITORIES","LIDOCAINE","LIDOCAINE OINTMENT","METRONIDAZOLE","METRONIDAZOLE BENZOATE","MOMETASONE FUROATE","MOMETASONE FUROATE CREAM","MOMETASONE FUROATE OINTMENT","NYSTATIN","NYSTATIN AND TRIAMCINOLONE ACETONIDE CREAM","NYSTATIN AND TRIAMCINOLONE ACETONIDE OINTMENT","NYSTATIN CREAM","NYSTATIN OINTMENT","PROCHLORPERAZINE","PROCHLORPERAZINE EDISYLATE","PROCHLORPERAZINE MALEATE","PROCHLORPERAZINE SUPPOSITORIES","PROMETHAZINE HYDROCHLORIDE","PROMETHAZINE HYDROCHLORIDE SUPPOSITORIES","TAZAROTENE","TAZAROTENE CREAM","TERCONAZOLE","TRIAMCINOLONE","TRIAMCINOLONE ACETONIDE","TRIAMCINOLONE ACETONIDE CREAM","TRIAMCINOLONE ACETONIDE DENTAL PASTE","TRIAMCINOLONE ACETONIDE LOTION","TRIAMCINOLONE ACETONIDE OINTMENT"],"City":"North Kansas City","Country":"United States","Application Data":"Yes","Activeness Flag":"Unknown","Forecasted Volume":"50 kg\/yr","latitude":"39.145334","longitude":"-94.581852"},{"Manufacturer":"Airgas Usa, LLC","Manufacturing Type":"MANUFACTURE","Products":["ACETAMINOPHEN","AMPHETAMINE MIXED SALTS EXTENDED-RELEASE CAPSULES","AMPHETAMINE SULFATE","BUTALBITAL","BUTALBITAL, ACETAMINOPHEN, AND CAFFEINE TABLETS","CAFFEINE","DEXTROAMPHETAMINE SULFATE","DEXTROAMPHETAMINE SULFATE TABLETS","MORPHINE SULFATE","MORPHINE SULFATE EXTENDED-RELEASE TABLETS","NYSTATIN","NYSTATIN TOPICAL POWDER","OSELTAMIVIR PHOSPHATE","OSELTAMIVIR PHOSPHATE CAPSULES","OSELTAMIVIR PHOSPHATE FOR ORAL SUSPENSION","OXYCODONE AND ACETAMINOPHEN TABLETS","OXYCODONE HYDROCHLORIDE","OXYCODONE HYDROCHLORIDE TABLETS","POTASSIUM CHLORIDE","POTASSIUM CHLORIDE EXTENDED-RELEASE CAPSULES"],"City":"Lansing","Country":"United States","Application Data":"Yes","Activeness Flag":"Unknown","Forecasted Volume":"50 kg\/yr","latitude":"42.772767","longitude":"-84.579859"},{"Manufacturer":"AMRYT DISTRIBUTION LIMITED","Manufacturing Type":"MANUFACTURE","Products":["OXYGEN"],"City":"Tulsa","Country":"United States","Application Data":"Yes","Activeness Flag":"Unknown","Forecasted Volume":"50 kg\/yr","latitude":"36.046543","longitude":"-96.086952"},{"Manufacturer":"Del Rio Welders Equipment Inc","Manufacturing Type":"API MANUFACTURE","Products":["ASCORBIC ACID","POLYETHYLENE GLYCOL 3350","POTASSIUM CHLORIDE","SODIUM ASCORBATE","SODIUM CHLORIDE","SODIUM SULFATE"],"City":"Athens","Country":"United States","Application Data":"Yes","Activeness Flag":"Unknown","Forecasted Volume":"50 kg\/yr","latitude":"32.170784","longitude":"-95.843576"},{"Manufacturer":"Messer LLC","Manufacturing Type":"MANUFACTURE","Products":["ACETAMINOPHEN","AMLODIPINE AND VALSARTAN TABLETS","AMLODIPINE BESYLATE","ASCORBIC ACID","AZITHROMYCIN","AZITHROMYCIN FOR ORAL SUSPENSION","BISACODYL","CALCIPOTRIENE","CALCIPOTRIENE TOPICAL SOLUTION","CARBIDOPA","CARBIDOPA TABLETS","CEVIMELINE HYDROCHLORIDE","CEVIMELINE HYDROCHLORIDE CAPSULES","CLOBETASOL PROPIONATE","CLOBETASOL PROPIONATE OINTMENT","CLOBETASOL PROPIONATE TOPICAL SOLUTION","DESOXIMETASONE","DESOXIMETASONE OINTMENT","DEXMETHYLPHENIDATE HYDROCHLORIDE","DEXMETHYLPHENIDATE HYDROCHLORIDE TABLETS","DEXTROAMPHETAMINE SULFATE","DEXTROAMPHETAMINE SULFATE TABLETS","DICLOFENAC SODIUM","DICLOFENAC SODIUM TOPICAL SOLUTION","DOXYCYCLINE","DOXYCYCLINE CAPSULES","DOXYCYCLINE HYCLATE","DOXYCYCLINE HYCLATE CAPSULES","DOXYCYCLINE HYCLATE TABLETS","DOXYCYCLINE TABLETS","FAMOTIDINE","FAMOTIDINE FOR ORAL SUSPENSION","FLUCYTOSINE","FLUCYTOSINE CAPSULES","FLUOCINOLONE ACETONIDE","FLUOCINOLONE ACETONIDE TOPICAL SOLUTION","FLUOCINONIDE","FLUOCINONIDE OINTMENT","FLUOCINONIDE TOPICAL SOLUTION","HOMATROPINE METHYLBROMIDE","HYDROCHLOROTHIAZIDE","HYDROCODONE BITARTRATE","HYDROCODONE BITARTRATE AND ACETAMINOPHEN TABLETS","HYDROCODONE BITARTRATE AND HOMATROPINE METHYLBROMIDE TABLETS","LEVONORGESTREL","LEVONORGESTREL TABLETS","LINEZOLID","MAGNESIUM SULFATE","METHYLERGONOVINE MALEATE","METHYLERGONOVINE MALEATE TABLETS","METHYLPHENIDATE HYDROCHLORIDE","METHYLPHENIDATE HYDROCHLORIDE CHEWABLE TABLETS","METHYLPHENIDATE HYDROCHLORIDE ORAL SOLUTION","METHYLPHENIDATE HYDROCHLORIDE TABLETS","MISOPROSTOL","MORPHINE SULFATE","MORPHINE SULFATE EXTENDED-RELEASE TABLETS","MOXIFLOXACIN HYDROCHLORIDE","MOXIFLOXACIN TABLETS","NITROFURANTOIN","NITROFURANTOIN CAPSULES","NITROFURANTOIN ORAL SUSPENSION","NYSTATIN","NYSTATIN TOPICAL POWDER","ORPHENADRINE CITRATE","ORPHENADRINE CITRATE EXTENDED-RELEASE TABLETS","OXYCODONE AND ACETAMINOPHEN TABLETS","OXYCODONE HYDROCHLORIDE","OXYCODONE HYDROCHLORIDE CAPSULES","OXYCODONE HYDROCHLORIDE ORAL SOLUTION","OXYCODONE HYDROCHLORIDE TABLETS","PENTAZOCINE","PENTAZOCINE AND ACETAMINOPHEN TABLETS","PENTAZOCINE AND NALOXONE TABLETS","PENTAZOCINE HYDROCHLORIDE","PHENELZINE SULFATE","PHENELZINE SULFATE TABLETS","POLYETHYLENE GLYCOL 3350","POTASSIUM CHLORIDE","POTASSIUM CHLORIDE EXTENDED-RELEASE CAPSULES","POTASSIUM CHLORIDE EXTENDED-RELEASE TABLETS","POTASSIUM CHLORIDE FOR ORAL SOLUTION","POTASSIUM CHLORIDE ORAL SOLUTION","QUINAPRIL AND HYDROCHLOROTHIAZIDE TABLETS","QUINAPRIL HYDROCHLORIDE","SODIUM ASCORBATE","SODIUM BICARBONATE","SODIUM CHLORIDE","SODIUM SULFATE","SODIUM, POTASSIUM AND MAGNESIUM SULFATES ORAL SOLUTION","TEMAZEPAM","TEMAZEPAM CAPSULES","TINIDAZOLE","TINIDAZOLE TABLETS","TRIAMCINOLONE","TRIAMCINOLONE ACETONIDE","TRIAMCINOLONE ACETONIDE OINTMENT","TRIMETHOBENZAMIDE HYDROCHLORIDE","TRIMETHOBENZAMIDE HYDROCHLORIDE CAPSULES","TRIMETHOPRIM","TRIMETHOPRIM SULFATE","TRIMETHOPRIM TABLETS","VALSARTAN","VORICONAZOLE","VORICONAZOLE FOR ORAL SUSPENSION","VORICONAZOLE TABLETS","ZOLPIDEM TARTRATE","ZOLPIDEM TARTRATE SUBLINGUAL TABLETS"],"City":"Hauppauge","Country":"United States","Application Data":"Yes","Activeness Flag":"Unknown","Forecasted Volume":"50 kg\/yr","latitude":"40.81071","longitude":"-73.242454"},{"Manufacturer":"Airgas Usa, LLC","Manufacturing Type":"MANUFACTURE","Products":["ARGATROBAN","ARGATROBAN IN SODIUM CHLORIDE INJECTION","ATAZANAVIR CAPSULES","ATAZANAVIR SULFATE","BACLOFEN","BACLOFEN TABLETS","BOSENTAN","BOSENTAN TABLETS","CHLORPROMAZINE","CHLORPROMAZINE HYDROCHLORIDE","CHLORPROMAZINE HYDROCHLORIDE TABLETS","CLOBAZAM","CLOBAZAM TABLETS","CLOPIDOGREL BISULFATE","CLOPIDOGREL TABLETS","CYCLOBENZAPRINE HYDROCHLORIDE","CYCLOBENZAPRINE HYDROCHLORIDE TABLETS","CYCLOPHOSPHAMIDE","CYCLOPHOSPHAMIDE FOR INJECTION","DEXAMETHASONE","DEXAMETHASONE SODIUM PHOSPHATE INJECTION","DEXMEDETOMIDINE INJECTION","DOXERCALCIFEROL","DOXERCALCIFEROL INJECTION","DOXYCYCLINE","DOXYCYCLINE HYCLATE","DOXYCYCLINE HYCLATE TABLETS","DOXYCYCLINE TABLETS","EPHEDRINE","EPHEDRINE SULFATE","EPHEDRINE SULFATE INJECTION","ESOMEPRAZOLE MAGNESIUM","ESOMEPRAZOLE MAGNESIUM DELAYED-RELEASE CAPSULES","ESOMEPRAZOLE SODIUM","ESOMEPRAZOLE STRONTIUM DELAYED-RELEASE CAPSULES","EZETIMIBE","EZETIMIBE AND SIMVASTATIN TABLETS","FLUCONAZOLE","FLUCONAZOLE IN DEXTROSE INJECTION","FLUCONAZOLE IN SODIUM CHLORIDE INJECTION","FLUPHENAZINE ENANTHATE","FLUPHENAZINE HYDROCHLORIDE","FLUPHENAZINE HYDROCHLORIDE TABLETS","FOSPHENYTOIN SODIUM","FOSPHENYTOIN SODIUM INJECTION","FROVATRIPTAN SUCCINATE","FULVESTRANT","FULVESTRANT INJECTION","FUROSEMIDE","FUROSEMIDE INJECTION","GLYCOPYRROLATE","GLYCOPYRROLATE INJECTION","HYDROXYCHLOROQUINE SULFATE","HYDROXYCHLOROQUINE SULFATE TABLETS","IBUPROFEN","IBUPROFEN LYSINE","IBUPROFEN TABLETS","LEVOLEUCOVORIN CALCIUM","METFORMIN HYDROCHLORIDE","METFORMIN HYDROCHLORIDE EXTENDED-RELEASE TABLETS","METHYLPREDNISOLONE","METHYLPREDNISOLONE ACETATE","METHYLPREDNISOLONE ACETATE INJECTABLE SUSPENSION","METHYLPREDNISOLONE SODIUM SUCCINATE","METHYLPREDNISOLONE SODIUM SUCCINATE FOR INJECTION","METYROSINE","METYROSINE CAPSULES","NEOSTIGMINE BROMIDE","NEOSTIGMINE METHYLSULFATE","NEOSTIGMINE METHYLSULFATE INJECTION","NOREPINEPHRINE BITARTRATE","NOREPINEPHRINE BITARTRATE INJECTION","OXAPROZIN","OXAPROZIN TABLETS","PARICALCITOL","PARICALCITOL INJECTION","PHENOXYBENZAMINE HYDROCHLORIDE","PHENOXYBENZAMINE HYDROCHLORIDE CAPSULES","PHENYLEPHRINE HYDROCHLORIDE","PHENYLEPHRINE HYDROCHLORIDE INJECTION","PILOCARPINE","PILOCARPINE HYDROCHLORIDE","PILOCARPINE HYDROCHLORIDE OPHTHALMIC SOLUTION","PILOCARPINE NITRATE","PILOCARPINE NITRATE OPHTHALMIC SOLUTION","POTASSIUM CHLORIDE","POTASSIUM CHLORIDE EXTENDED-RELEASE TABLETS","PREDNISONE","PREDNISONE TABLETS","QUETIAPINE EXTENDED-RELEASE TABLETS","QUETIAPINE FUMARATE","RALOXIFENE HYDROCHLORIDE","RALOXIFENE HYDROCHLORIDE TABLETS","RANITIDINE HYDROCHLORIDE","RANITIDINE TABLETS","SIMVASTATIN","SODIUM NITROPRUSSIDE","SOLIFENACIN SUCCINATE","SOLIFENACIN SUCCINATE TABLETS","SUCCINYLCHOLINE CHLORIDE","SUCCINYLCHOLINE CHLORIDE INJECTION","TADALAFIL","TADALAFIL TABLETS","TRANEXAMIC ACID","TRANEXAMIC ACID INJECTION","TRIAMCINOLONE","TRIAMCINOLONE ACETONIDE","URSODIOL","URSODIOL CAPSULES","VARDENAFIL HYDROCHLORIDE","VERAPAMIL HYDROCHLORIDE","VERAPAMIL HYDROCHLORIDE INJECTION"],"City":"Philadelphia","Country":"United States","Application Data":"Yes","Activeness Flag":"Unknown","Forecasted Volume":"50 kg\/yr","latitude":"40.063248","longitude":"-75.072925"},{"Manufacturer":"Airway Oxygen Inc","Manufacturing Type":"MANUFACTURE","Products":["NITROGEN","OXYGEN"],"City":"Artesia","Country":"United States","Application Data":"Yes","Activeness Flag":"Unknown","Forecasted Volume":"50 kg\/yr","latitude":"32.843608","longitude":"-104.397797"},{"Manufacturer":"Jacobus Pharmaceutical Co Inc","Manufacturing Type":"MANUFACTURE","Products":["OXYGEN"],"City":"Tulsa","Country":"United States","Application Data":"Yes","Activeness Flag":"Unknown","Forecasted Volume":"50 kg\/yr","latitude":"36.135942","longitude":"-96.007025"},{"Manufacturer":"John S Posen Inc","Manufacturing Type":"MANUFACTURE","Products":["PARICALCITOL","PARICALCITOL CAPSULES"],"City":"Grand Prairie","Country":"United States","Application Data":"Yes","Activeness Flag":"Unknown","Forecasted Volume":"50 kg\/yr","latitude":"32.7855","longitude":"-97.055519"},{"Manufacturer":"Resource Connection","Manufacturing Type":"MANUFACTURE","Products":["NITROGEN","OXYGEN"],"City":"Naples","Country":"United States","Application Data":"Yes","Activeness Flag":"Unknown","Forecasted Volume":"50 kg\/yr","latitude":"26.216905","longitude":"-81.777452"},{"Manufacturer":"L Perrigo Company","Manufacturing Type":"MANUFACTURE","Products":["OXYGEN"],"City":"Greenville","Country":"United States","Application Data":"Yes","Activeness Flag":"Unknown","Forecasted Volume":"50 kg\/yr","latitude":"35.658507","longitude":"-77.357521"},{"Manufacturer":"Welsco, Inc.","Manufacturing Type":"MANUFACTURE","Products":["ISONIAZID","ISONIAZID TABLETS"],"City":"Bismarck","Country":"United States","Application Data":"Yes","Activeness Flag":"Unknown","Forecasted Volume":"50 kg\/yr","latitude":"46.796924","longitude":"-100.749781"},{"Manufacturer":"Laevita Inc","Manufacturing Type":"MANUFACTURE","Products":["NITROGEN","NITROUS OXIDE","OXYGEN"],"City":"La Porte","Country":"United States","Application Data":"Yes","Activeness Flag":"Unknown","Forecasted Volume":"50 kg\/yr","latitude":"29.702418","longitude":"-95.051829"},{"Manufacturer":"Holston Gases, Inc.","Manufacturing Type":"MANUFACTURE","Products":["OXYGEN"],"City":"Casper","Country":"United States","Application Data":"Yes","Activeness Flag":"Unknown","Forecasted Volume":"50 kg\/yr","latitude":"42.851945","longitude":"-106.302568"},{"Manufacturer":"Tolmar 1201 Cornerstone LLC","Manufacturing Type":"MANUFACTURE","Products":["OXYGEN"],"City":"Plymouth","Country":"United States","Application Data":"Yes","Activeness Flag":"Unknown","Forecasted Volume":"50 kg\/yr","latitude":"41.354663","longitude":"-86.361708"},{"Manufacturer":"Kalos Health Services, LLC","Manufacturing Type":"MANUFACTURE","Products":["NITROGEN"],"City":"Birmingham","Country":"United States","Application Data":"Yes","Activeness Flag":"Unknown","Forecasted Volume":"50 kg\/yr","latitude":"33.4117","longitude":"-86.9061"},{"Manufacturer":"Praxair Distribution, Inc.","Manufacturing Type":"MANUFACTURE","Products":["DABIGATRAN ETEXILATE CAPSULES","DABIGATRAN ETEXILATE MESYLATE","EMPAGLIFLOZIN","EMPAGLIFLOZIN TABLETS","LINAGLIPTIN","LINAGLIPTIN TABLETS","MELOXICAM","MELOXICAM TABLETS"],"City":"Newtown","Country":"United States","Application Data":"Yes","Activeness Flag":"Unknown","Forecasted Volume":"50 kg\/yr","latitude":"40.229325","longitude":"-74.91284"},{"Manufacturer":"Ingenus Pharmaceuticals GmbH","Manufacturing Type":"MANUFACTURE","Products":["OXYGEN"],"City":"Sacramento","Country":"United States","Application Data":"Yes","Activeness Flag":"Unknown","Forecasted Volume":"50 kg\/yr","latitude":"38.65362","longitude":"-121.487794"},{"Manufacturer":"EIRGEN PHARMA LIMITED","Manufacturing Type":"MANUFACTURE","Products":["POTASSIUM BICARBONATE","POTASSIUM BICARBONATE EFFERVESCENT TABLETS FOR ORAL SOLUTION"],"City":"Baltimore","Country":"United States","Application Data":"Yes","Activeness Flag":"Unknown","Forecasted Volume":"50 kg\/yr","latitude":"39.287388","longitude":"-76.612101"},{"Manufacturer":"Praxair M\u00e9xico, S. de R.L. de C.V.","Manufacturing Type":"API MANUFACTURE","Products":["NITROGEN"],"City":"San Antonio","Country":"United States","Application Data":"Yes","Activeness Flag":"Unknown","Forecasted Volume":"50 kg\/yr","latitude":"29.505506","longitude":"-98.585457"},{"Manufacturer":"Airgas Usa, LLC","Manufacturing Type":"MANUFACTURE","Products":["ESTRADIOL","ESTRADIOL ACETATE","METHOTREXATE","METHOTREXATE TABLETS","TOREMIFENE CITRATE"],"City":"San Diego","Country":"United States","Application Data":"Yes","Activeness Flag":"Unknown","Forecasted Volume":"50 kg\/yr","latitude":"32.901651","longitude":"-117.18477"},{"Manufacturer":"STERLING SPA","Manufacturing Type":"MANUFACTURE","Products":["ASPIRIN","BUTALBITAL","BUTALBITAL, ASPIRIN, CAFFEINE, AND CODEINE PHOSPHATE CAPSULES","CAFFEINE","CODEINE","CODEINE PHOSPHATE","DIGOXIN","DIGOXIN TABLETS","LEVOTHYROXINE SODIUM","LEVOTHYROXINE SODIUM TABLETS","METHOCARBAMOL","ORPHENADRINE CITRATE","ORPHENADRINE CITRATE, ASPIRIN, AND CAFFEINE TABLETS"],"City":"Athens","Country":"United States","Application Data":"Yes","Activeness Flag":"Unknown","Forecasted Volume":"50 kg\/yr","latitude":"33.981287","longitude":"-83.33102"},{"Manufacturer":"Sg Homecare, Inc.","Manufacturing Type":"API MANUFACTURE","Products":["OXYGEN"],"City":"West Caldwell","Country":"United States","Application Data":"Yes","Activeness Flag":"Unknown","Forecasted Volume":"50 kg\/yr","latitude":"40.866962","longitude":"-74.291657"},{"Manufacturer":"Smithkline Beecham Limited","Manufacturing Type":"MANUFACTURE","Products":["ALANINE","ARGININE","ARGININE HYDROCHLORIDE","BACTERIOSTATIC SODIUM CHLORIDE INJECTION","CALCIUM CHLORIDE","DEXTROSE","DEXTROSE AND SODIUM CHLORIDE INJECTION","DEXTROSE INJECTION","DIBASIC POTASSIUM PHOSPHATE","DOPAMINE HYDROCHLORIDE","ESMOLOL HYDROCHLORIDE","ESMOLOL HYDROCHLORIDE INJECTION","GLYCINE","GLYCINE IRRIGATION","HEPARIN SODIUM","HEPARIN SODIUM INJECTION","HISTIDINE","ISOLEUCINE","LACTATED RINGER'S IRRIGATION","LEUCINE","LIDOCAINE","LIDOCAINE HYDROCHLORIDE","LIDOCAINE HYDROCHLORIDE INJECTION","LYSINE ACETATE","LYSINE HYDROCHLORIDE","MAGNESIUM CHLORIDE","MANNITOL","MANNITOL IN SODIUM CHLORIDE INJECTION","MANNITOL INJECTION","METRONIDAZOLE","METRONIDAZOLE BENZOATE","METRONIDAZOLE INJECTION","MONOBASIC POTASSIUM PHOSPHATE","MONOSODIUM GLUTAMATE","PHENYLALANINE","POTASSIUM CHLORIDE","POTASSIUM CHLORIDE IN DEXTROSE AND SODIUM CHLORIDE INJECTION","POTASSIUM CHLORIDE IN DEXTROSE INJECTION","POTASSIUM CHLORIDE IN LACTATED RINGER'S AND DEXTROSE INJECTION","POTASSIUM CHLORIDE IN SODIUM CHLORIDE INJECTION","PROLINE","SERINE","SODIUM ACETATE","SODIUM CHLORIDE","SODIUM CHLORIDE INJECTION","SODIUM CHLORIDE IRRIGATION","SODIUM GLUCONATE","SORBITOL","STERILE WATER FOR IRRIGATION","TAURINE","THREONINE","TRYPTOPHAN","TYROSINE","VALINE"],"City":"Central Islip","Country":"United States","Application Data":"Yes","Activeness Flag":"Unknown","Forecasted Volume":"50 kg\/yr","latitude":"40.770338","longitude":"-73.200329"},{"Manufacturer":"Generics Bidco II, LLC","Manufacturing Type":"MANUFACTURE","Products":["CLOBAZAM","CLOBAZAM ORAL SUSPENSION","CLOBAZAM TABLETS","GLIMEPIRIDE","GLIMEPIRIDE TABLETS","INSULIN GLARGINE","INSULIN GLARGINE INJECTION","INSULIN LISPRO","INSULIN LISPRO INJECTION","LEFLUNOMIDE","LEFLUNOMIDE TABLETS","LIXISENATIDE","TERIFLUNOMIDE","TERIFLUNOMIDE TABLETS"],"City":"Greenville","Country":"United States","Application Data":"Yes","Activeness Flag":"Unknown","Forecasted Volume":"50 kg\/yr","latitude":"34.773908","longitude":"-82.33404"},{"Manufacturer":"Messer LLC","Manufacturing Type":"MANUFACTURE","Products":["OXYGEN"],"City":"Broadview","Country":"United States","Application Data":"Yes","Activeness Flag":"Unknown","Forecasted Volume":"50 kg\/yr","latitude":"41.867323","longitude":"-87.863052"},{"Manufacturer":"Airgas Usa, LLC","Manufacturing Type":"MANUFACTURE","Products":["OMEPRAZOLE","OMEPRAZOLE AND SODIUM BICARBONATE CAPSULES","OMEPRAZOLE AND SODIUM BICARBONATE FOR ORAL SUSPENSION","OMEPRAZOLE MAGNESIUM","SODIUM BICARBONATE"],"City":"Fremont","Country":"United States","Application Data":"Yes","Activeness Flag":"Unknown","Forecasted Volume":"50 kg\/yr","latitude":"41.349324","longitude":"-83.143636"},{"Manufacturer":"Patheon Inc","Manufacturing Type":"MANUFACTURE","Products":["OXYGEN"],"City":"Longview","Country":"United States","Application Data":"Yes","Activeness Flag":"Unknown","Forecasted Volume":"50 kg\/yr","latitude":"32.456215","longitude":"-94.741833"},{"Manufacturer":"North Central Respiratory Inc","Manufacturing Type":"API MANUFACTURE","Products":["OXYGEN"],"City":"West Palm Beach","Country":"United States","Application Data":"Yes","Activeness Flag":"Unknown","Forecasted Volume":"50 kg\/yr","latitude":"26.713286","longitude":"-80.109235"},{"Manufacturer":"Airgas Usa, LLC","Manufacturing Type":"MANUFACTURE","Products":["DIPHENHYDRAMINE HYDROCHLORIDE","DIPHENHYDRAMINE HYDROCHLORIDE CAPSULES","PREDNISONE","PREDNISONE TABLETS"],"City":"Wilkes Barre","Country":"United States","Application Data":"Yes","Activeness Flag":"Unknown","Forecasted Volume":"50 kg\/yr","latitude":"41.241058","longitude":"-75.883836"},{"Manufacturer":"PERRIGO ISRAEL PHARMACEUTICALS LTD.","Manufacturing Type":"MANUFACTURE","Products":["CANAGLIFLOZIN","CANAGLIFLOZIN AND METFORMIN HYDROCHLORIDE TABLETS","METFORMIN HYDROCHLORIDE"],"City":"New Cumberland","Country":"United States","Application Data":"Yes","Activeness Flag":"Unknown","Forecasted Volume":"50 kg\/yr","latitude":"40.209991","longitude":"-76.886162"},{"Manufacturer":"MINAKEM BEUVRY PRODUCTION","Manufacturing Type":"MANUFACTURE","Products":["NITROGEN","OXYGEN"],"City":"Cranbury","Country":"United States","Application Data":"Yes","Activeness Flag":"Unknown","Forecasted Volume":"50 kg\/yr","latitude":"40.331727","longitude":"-74.497184"},{"Manufacturer":"Global Medical, LLC","Manufacturing Type":"MANUFACTURE","Products":["OXYGEN"],"City":"Spartanburg","Country":"United States","Application Data":"Yes","Activeness Flag":"Unknown","Forecasted Volume":"50 kg\/yr","latitude":"34.967724","longitude":"-82.022191"},{"Manufacturer":"Sun Pharmaceutical Industries, Inc.","Manufacturing Type":"MANUFACTURE","Products":["FOSAPREPITANT DIMEGLUMINE","FOSAPREPITANT FOR INJECTION","SUCCINYLCHOLINE CHLORIDE","SUCCINYLCHOLINE CHLORIDE INJECTION"],"City":"Ewing","Country":"United States","Application Data":"Yes","Activeness Flag":"Unknown","Forecasted Volume":"50 kg\/yr","latitude":"40.257438","longitude":"-74.710164"},{"Manufacturer":"GLENMARK PHARMACEUTICALS LIMITED","Manufacturing Type":"MANUFACTURE","Products":["BENZPHETAMINE HYDROCHLORIDE","BENZPHETAMINE HYDROCHLORIDE TABLETS","METHYLPHENIDATE HYDROCHLORIDE","METHYLPHENIDATE HYDROCHLORIDE CHEWABLE TABLETS"],"City":"Convent","Country":"United States","Application Data":"Yes","Activeness Flag":"Unknown","Forecasted Volume":"50 kg\/yr","latitude":"30.12105","longitude":"-90.869185"},{"Manufacturer":"Airgas Usa, LLC","Manufacturing Type":"MANUFACTURE","Products":["BREXPIPRAZOLE","TOLVAPTAN","TOLVAPTAN TABLETS"],"City":"Greenfield","Country":"United States","Application Data":"Yes","Activeness Flag":"Unknown","Forecasted Volume":"50 kg\/yr","latitude":"42.641201","longitude":"-72.568044"},{"Manufacturer":"Messer LLC","Manufacturing Type":"MANUFACTURE","Products":["NITROGEN","OXYGEN"],"City":"Danbury","Country":"United States","Application Data":"Yes","Activeness Flag":"Unknown","Forecasted Volume":"50 kg\/yr","latitude":"41.389764","longitude":"-73.501203"},{"Manufacturer":"Messer LLC","Manufacturing Type":"API MANUFACTURE","Products":["HYDROQUINONE","HYDROQUINONE CREAM"],"City":"Plainsboro","Country":"United States","Application Data":"Yes","Activeness Flag":"Unknown","Forecasted Volume":"50 kg\/yr","latitude":"40.335382","longitude":"-74.593536"},{"Manufacturer":"Messer LLC","Manufacturing Type":"API MANUFACTURE","Products":["FLUOXETINE CAPSULES","MINOCYCLINE HYDROCHLORIDE","MINOCYCLINE HYDROCHLORIDE CAPSULES","MINOCYCLINE HYDROCHLORIDE TABLETS","MODAFINIL","MODAFINIL TABLETS","NITROFURANTOIN","NITROFURANTOIN CAPSULES","TROSPIUM CHLORIDE"],"City":"Tacoma","Country":"United States","Application Data":"Yes","Activeness Flag":"Unknown","Forecasted Volume":"50 kg\/yr","latitude":"47.239149","longitude":"-122.39399"},{"Manufacturer":"Tri Lakes Home Medical Equipment Inc","Manufacturing Type":"MANUFACTURE","Products":["CARBON DIOXIDE","NITROGEN","OXYGEN"],"City":"Eugene","Country":"United States","Application Data":"Yes","Activeness Flag":"Unknown","Forecasted Volume":"50 kg\/yr","latitude":"44.019019","longitude":"-123.079875"},{"Manufacturer":"FARMHISPANIA S.A.","Manufacturing Type":"MANUFACTURE","Products":["CEFTAZIDIME","CEFTAZIDIME FOR INJECTION","CEFTAZIDIME INJECTION"],"City":"Flemingsburg","Country":"United States","Application Data":"Yes","Activeness Flag":"Unknown","Forecasted Volume":"50 kg\/yr","latitude":"38.4216","longitude":"-83.7523"},{"Manufacturer":"Nexair, LLC","Manufacturing Type":"MANUFACTURE","Products":["NITROGEN","OXYGEN"],"City":"Cheyenne","Country":"United States","Application Data":"Yes","Activeness Flag":"Unknown","Forecasted Volume":"50 kg\/yr","latitude":"41.12645","longitude":"-104.754942"},{"Manufacturer":"Seaboard Welding Supply, Inc.","Manufacturing Type":"MANUFACTURE","Products":["CASPOFUNGIN ACETATE","CASPOFUNGIN FOR INJECTION","MIDAZOLAM","MIDAZOLAM HYDROCHLORIDE","MIDAZOLAM INJECTION"],"City":"Midland","Country":"United States","Application Data":"Yes","Activeness Flag":"Unknown","Forecasted Volume":"50 kg\/yr","latitude":"35.219943","longitude":"-80.519347"},{"Manufacturer":"United Respiratory Services, LLC","Manufacturing Type":"API MANUFACTURE","Products":["ALFUZOSIN HYDROCHLORIDE","ALFUZOSIN HYDROCHLORIDE EXTENDED-RELEASE TABLETS","AMLODIPINE BESYLATE","AMLODIPINE BESYLATE TABLETS","BACLOFEN","BACLOFEN TABLETS","BISOPROLOL FUMARATE","BISOPROLOL FUMARATE AND HYDROCHLOROTHIAZIDE TABLETS","HYDROCHLOROTHIAZIDE","HYDROCHLOROTHIAZIDE TABLETS","MELOXICAM","MELOXICAM TABLETS","MEMANTINE HYDROCHLORIDE","MEMANTINE HYDROCHLORIDE TABLETS","METFORMIN HYDROCHLORIDE","METFORMIN HYDROCHLORIDE EXTENDED-RELEASE TABLETS","METRONIDAZOLE","METRONIDAZOLE BENZOATE","METRONIDAZOLE TABLETS","TADALAFIL","TADALAFIL TABLETS","ZALEPLON","ZALEPLON CAPSULES","ZONISAMIDE","ZONISAMIDE CAPSULES"],"City":"Seattle","Country":"United States","Application Data":"Yes","Activeness Flag":"Unknown","Forecasted Volume":"50 kg\/yr","latitude":"47.657285","longitude":"-122.342405"},{"Manufacturer":"Oxygen Plus, Inc.","Manufacturing Type":"MANUFACTURE","Products":["ACETAMINOPHEN","CLINDAMYCIN HYDROCHLORIDE","CLINDAMYCIN HYDROCHLORIDE ORAL SOLUTION","CLINDAMYCIN PALMITATE HYDROCHLORIDE","CLINDAMYCIN PALMITATE HYDROCHLORIDE FOR ORAL SOLUTION","CLOBAZAM","CLOBAZAM TABLETS","DOXYCYCLINE","DOXYCYCLINE HYCLATE","DOXYCYCLINE HYCLATE TABLETS","DOXYCYCLINE TABLETS","GUAIFENESIN","HYDROCODONE BITARTRATE","HYOSCYAMINE","HYOSCYAMINE SULFATE","HYOSCYAMINE SULFATE TABLETS","HYOSCYAMINE TABLETS","METHSCOPOLAMINE BROMIDE","METHSCOPOLAMINE BROMIDE TABLETS","PHENOBARBITAL","PHENOBARBITAL ORAL SOLUTION","PHENOBARBITAL SODIUM","TRAMADOL HYDROCHLORIDE"],"City":"State College","Country":"United States","Application Data":"Yes","Activeness Flag":"Unknown","Forecasted Volume":"50 kg\/yr","latitude":"40.844399","longitude":"-77.794685"},{"Manufacturer":"Ifh Construction LLC","Manufacturing Type":"MANUFACTURE","Products":["CHOLECALCIFEROL","FOLIC ACID","LIDOCAINE","LIDOCAINE HYDROCHLORIDE"],"City":"Amityville","Country":"United States","Application Data":"Yes","Activeness Flag":"Unknown","Forecasted Volume":"50 kg\/yr","latitude":"40.681999","longitude":"-73.409271"},{"Manufacturer":"Church & Dwight Co., Inc.","Manufacturing Type":"MANUFACTURE","Products":["OXYGEN"],"City":"Irving","Country":"United States","Application Data":"Yes","Activeness Flag":"Unknown","Forecasted Volume":"50 kg\/yr","latitude":"32.885117","longitude":"-96.971009"},{"Manufacturer":"Vistin Pharma AS avd Krager\u00f8 Fikkjebakke","Manufacturing Type":"MANUFACTURE","Products":["LORAZEPAM","LORAZEPAM TABLETS","MINOCYCLINE HYDROCHLORIDE","MINOCYCLINE HYDROCHLORIDE CAPSULES"],"City":"Fargo","Country":"United States","Application Data":"Yes","Activeness Flag":"Unknown","Forecasted Volume":"50 kg\/yr","latitude":"46.882263","longitude":"-96.810663"},{"Manufacturer":"Airgas Usa, LLC","Manufacturing Type":"MANUFACTURE","Products":["FLUOROURACIL","FLUOROURACIL CREAM","TRETINOIN","TRETINOIN GEL"],"City":"Twin Falls","Country":"United States","Application Data":"Yes","Activeness Flag":"Unknown","Forecasted Volume":"50 kg\/yr","latitude":"42.590483","longitude":"-114.48607"},{"Manufacturer":"GLAND PHARMA LIMITED","Manufacturing Type":"MANUFACTURE","Products":["OXYGEN"],"City":"Princeton","Country":"United States","Application Data":"Yes","Activeness Flag":"Unknown","Forecasted Volume":"50 kg\/yr","latitude":"40.302526","longitude":"-74.674551"},{"Manufacturer":"Praxair Distribution Mid-Atlantic, LLC","Manufacturing Type":"MANUFACTURE","Products":["CARBON DIOXIDE","HELIUM","NITROGEN","NITROUS OXIDE","OXYGEN"],"City":"Somerset","Country":"United States","Application Data":"Yes","Activeness Flag":"Unknown","Forecasted Volume":"50 kg\/yr","latitude":"40.533439","longitude":"-74.520385"},{"Manufacturer":"Airgas Usa, LLC","Manufacturing Type":"MANUFACTURE","Products":["DOXERCALCIFEROL","DOXERCALCIFEROL CAPSULES"],"City":"Rancho Cucamonga","Country":"United States","Application Data":"Yes","Activeness Flag":"Unknown","Forecasted Volume":"50 kg\/yr","latitude":"34.094527","longitude":"-117.572969"},{"Manufacturer":"OTSUKA PHARMACEUTICAL CO., LTD.","Manufacturing Type":"MANUFACTURE","Products":["BACTERIOSTATIC SODIUM CHLORIDE INJECTION","CALCIUM CHLORIDE","DEXTROSE","DEXTROSE AND SODIUM CHLORIDE INJECTION","DEXTROSE INJECTION","MAGNESIUM CHLORIDE","MANNITOL","MANNITOL IN SODIUM CHLORIDE INJECTION","MANNITOL INJECTION","MONOBASIC POTASSIUM PHOSPHATE","MONOBASIC SODIUM PHOSPHATE","POTASSIUM CHLORIDE","POTASSIUM CHLORIDE IN DEXTROSE AND SODIUM CHLORIDE INJECTION","POTASSIUM CHLORIDE IN LACTATED RINGER'S AND DEXTROSE INJECTION","SODIUM ACETATE","SODIUM CHLORIDE","SODIUM CHLORIDE INJECTION","SODIUM CHLORIDE IRRIGATION","SODIUM GLUCONATE","STERILE WATER FOR IRRIGATION"],"City":"Saint Louis","Country":"United States","Application Data":"Yes","Activeness Flag":"Unknown","Forecasted Volume":"50 kg\/yr","latitude":"38.528677","longitude":"-90.329917"},{"Manufacturer":"INDENA SPA","Manufacturing Type":"MANUFACTURE","Products":["OXYGEN"],"City":"Phoenix","Country":"United States","Application Data":"Yes","Activeness Flag":"Unknown","Forecasted Volume":"50 kg\/yr","latitude":"33.445194","longitude":"-112.155988"},{"Manufacturer":"Praxair Distribution, Inc.","Manufacturing Type":"MANUFACTURE","Products":["NITROGEN","OXYGEN"],"City":"Miami","Country":"United States","Application Data":"Yes","Activeness Flag":"Unknown","Forecasted Volume":"50 kg\/yr","latitude":"25.646991","longitude":"-80.39426"},{"Manufacturer":"UPJOHN MANUFACTURING IRELAND UNLIMITED COMPANY","Manufacturing Type":"MANUFACTURE","Products":["NITROGEN","NITROUS OXIDE","OXYGEN"],"City":"Winston Salem","Country":"United States","Application Data":"Yes","Activeness Flag":"Unknown","Forecasted Volume":"50 kg\/yr","latitude":"36.090176","longitude":"-80.286628"},{"Manufacturer":"Matheson Tri-Gas, Inc.","Manufacturing Type":"MANUFACTURE","Products":["CERTOLIZUMAB PEGOL","CERTOLIZUMAB PEGOL FOR INJECTION","CERTOLIZUMAB PEGOL INJECTION"],"City":"Keokuk","Country":"United States","Application Data":"Yes","Activeness Flag":"Unknown","Forecasted Volume":"50 kg\/yr","latitude":"40.407951","longitude":"-91.38868"},{"Manufacturer":"BIEFFE MEDITAL SA","Manufacturing Type":"MANUFACTURE","Products":["EMTRICITABINE","EMTRICITABINE AND TENOFOVIR DISOPROXIL FUMARATE TABLETS","TENOFOVIR DISOPROXIL FUMARATE","URSODIOL","URSODIOL CAPSULES"],"City":"Waverly","Country":"United States","Application Data":"Yes","Activeness Flag":"Unknown","Forecasted Volume":"50 kg\/yr","latitude":"40.907219","longitude":"-96.532345"},{"Manufacturer":"Airgas Usa, LLC","Manufacturing Type":"MANUFACTURE","Products":["BUSPIRONE HYDROCHLORIDE","BUSPIRONE HYDROCHLORIDE TABLETS","COLESEVELAM HYDROCHLORIDE","COLESEVELAM HYDROCHLORIDE TABLETS","DULOXETINE DELAYED-RELEASE CAPSULES","DULOXETINE HYDROCHLORIDE","LANSOPRAZOLE","LANSOPRAZOLE DELAYED-RELEASE CAPSULES","METFORMIN HYDROCHLORIDE","METFORMIN HYDROCHLORIDE EXTENDED-RELEASE TABLETS","OLMESARTAN MEDOXOMIL","OLMESARTAN MEDOXOMIL TABLETS","PALIPERIDONE","PALIPERIDONE EXTENDED-RELEASE TABLETS","ROSUVASTATIN CALCIUM","ROSUVASTATIN TABLETS","TAMSULOSIN HYDROCHLORIDE","TAMSULOSIN HYDROCHLORIDE CAPSULES","TELMISARTAN","TELMISARTAN TABLETS","TOLTERODINE TARTRATE"],"City":"Great Neck","Country":"United States","Application Data":"Yes","Activeness Flag":"Unknown","Forecasted Volume":"50 kg\/yr","latitude":"40.780551","longitude":"-73.708509"},{"Manufacturer":"Perrigo Company","Manufacturing Type":"MANUFACTURE","Products":["CARBON DIOXIDE","HELIUM","NITROGEN","NITROUS OXIDE","OXYGEN"],"City":"Warner Robins","Country":"United States","Application Data":"Yes","Activeness Flag":"Unknown","Forecasted Volume":"50 kg\/yr","latitude":"32.589802","longitude":"-83.599799"},{"Manufacturer":"Airgas Usa, LLC","Manufacturing Type":"MANUFACTURE","Products":["ACETAMINOPHEN","ACETAZOLAMIDE","ACETAZOLAMIDE TABLETS","AMCINONIDE","AMCINONIDE CREAM","AMCINONIDE OINTMENT","AMIODARONE HYDROCHLORIDE","AMIODARONE HYDROCHLORIDE TABLETS","AZITHROMYCIN","AZITHROMYCIN FOR ORAL SUSPENSION","BETAMETHASONE","BETAMETHASONE BENZOATE","BETAMETHASONE SODIUM PHOSPHATE","BETAMETHASONE VALERATE","BROMPHENIRAMINE MALEATE","BUTALBITAL","BUTALBITAL, ACETAMINOPHEN, AND CAFFEINE CAPSULES","CAFFEINE","CARBAMAZEPINE","CARBAMAZEPINE EXTENDED-RELEASE TABLETS","CARBAMAZEPINE ORAL SUSPENSION","CARBAMAZEPINE TABLETS","CETIRIZINE HYDROCHLORIDE","CETIRIZINE HYDROCHLORIDE ORAL SOLUTION","CIPROFLOXACIN","CIPROFLOXACIN HYDROCHLORIDE","CIPROFLOXACIN TABLETS","CLINDAMYCIN HYDROCHLORIDE","CLINDAMYCIN PALMITATE HYDROCHLORIDE","CLINDAMYCIN PHOSPHATE TOPICAL FOAM","CLINDAMYCIN PHOSPHATE TOPICAL SOLUTION","CLOBAZAM","CLOBAZAM ORAL SUSPENSION","CLOBAZAM TABLETS","CLOBETASOL PROPIONATE","CLOBETASOL PROPIONATE CREAM","CLOBETASOL PROPIONATE OINTMENT","CLOCORTOLONE PIVALATE","CLOCORTOLONE PIVALATE CREAM","CLOMIPRAMINE HYDROCHLORIDE","CLOMIPRAMINE HYDROCHLORIDE CAPSULES","CLORAZEPATE DIPOTASSIUM","CLORAZEPATE DIPOTASSIUM TABLETS","CLOTRIMAZOLE","CLOTRIMAZOLE AND BETAMETHASONE DIPROPIONATE CREAM","DAPSONE","DAPSONE TABLETS","DEFERIPRONE","DEFERIPRONE TABLETS","DESONIDE","DESONIDE CREAM","DESONIDE LOTION","DESONIDE OINTMENT","DEXTROMETHORPHAN","DEXTROMETHORPHAN HYDROBROMIDE","DICHLORPHENAMIDE","DICHLORPHENAMIDE TABLETS","DOXEPIN HYDROCHLORIDE","DOXEPIN HYDROCHLORIDE CAPSULES","ENALAPRIL MALEATE","ENALAPRIL MALEATE AND HYDROCHLOROTHIAZIDE TABLETS","ENALAPRIL MALEATE TABLETS","ETODOLAC","ETODOLAC CAPSULES","ETODOLAC EXTENDED-RELEASE TABLETS","ETODOLAC TABLETS","EXTENDED PHENYTOIN SODIUM CAPSULES","FELBAMATE","FELBAMATE ORAL SUSPENSION","FELBAMATE TABLETS","FLUCONAZOLE","FLUCONAZOLE TABLETS","FLUOCINONIDE","FLUOCINONIDE TOPICAL SOLUTION","FLUOROURACIL","FLUOROURACIL CREAM","FLUOROURACIL TOPICAL SOLUTION","FLUTICASONE PROPIONATE","FLUTICASONE PROPIONATE OINTMENT","HYDROCHLOROTHIAZIDE","HYDROCORTISONE","HYDROCORTISONE ACETATE CREAM","HYDROCORTISONE ACETATE OINTMENT","HYDROCORTISONE BUTYRATE","HYDROCORTISONE BUTYRATE CREAM","HYDROCORTISONE BUTYRATE OINTMENT","HYDROCORTISONE CREAM","HYDROCORTISONE HEMISUCCINATE","HYDROCORTISONE OINTMENT","HYDROCORTISONE PROBUTATE CREAM","HYDROCORTISONE SODIUM SUCCINATE","HYDROCORTISONE VALERATE","HYDROCORTISONE VALERATE CREAM","HYDROCORTISONE VALERATE OINTMENT","ILOPERIDONE","ILOPERIDONE TABLETS","IMIQUIMOD","IMIQUIMOD CREAM","IVERMECTIN","IVERMECTIN LOTION","KETOCONAZOLE","KETOCONAZOLE TABLETS","LAMOTRIGINE","LAMOTRIGINE TABLETS","LEVETIRACETAM","LEVETIRACETAM ORAL SOLUTION","LEVETIRACETAM TABLETS","LEVOCETIRIZINE DIHYDROCHLORIDE","MEPROBAMATE","MEPROBAMATE TABLETS","METRONIDAZOLE","METRONIDAZOLE BENZOATE","MUPIROCIN","MUPIROCIN CALCIUM","MUPIROCIN OINTMENT","NORTRIPTYLINE HYDROCHLORIDE","NORTRIPTYLINE HYDROCHLORIDE CAPSULES","NYSTATIN","NYSTATIN AND TRIAMCINOLONE ACETONIDE CREAM","NYSTATIN AND TRIAMCINOLONE ACETONIDE OINTMENT","NYSTATIN CREAM","NYSTATIN FOR ORAL SUSPENSION","NYSTATIN ORAL SUSPENSION","ONDANSETRON","ONDANSETRON HYDROCHLORIDE","ONDANSETRON ORAL SOLUTION","ONDANSETRON TABLETS","OXCARBAZEPINE","OXCARBAZEPINE TABLETS","PHENYTOIN","PHENYTOIN CHEWABLE TABLETS","PHENYTOIN ORAL SUSPENSION","PHENYTOIN SODIUM","PSEUDOEPHEDRINE HYDROCHLORIDE","TRIAMCINOLONE","TRIAMCINOLONE ACETONIDE","WARFARIN SODIUM","WARFARIN SODIUM TABLETS"],"City":"Omaha","Country":"United States","Application Data":"Yes","Activeness Flag":"Unknown","Forecasted Volume":"50 kg\/yr","latitude":"41.218308","longitude":"-96.071748"},{"Manufacturer":"Matheson Tri-Gas, Inc.","Manufacturing Type":"MANUFACTURE","Products":["SIMVASTATIN","SIMVASTATIN TABLETS","TACROLIMUS","TACROLIMUS CAPSULES"],"City":"Memphis","Country":"United States","Application Data":"Yes","Activeness Flag":"Unknown","Forecasted Volume":"50 kg\/yr","latitude":"35.049998","longitude":"-90.153193"},{"Manufacturer":"Airgas Usa, LLC","Manufacturing Type":"MANUFACTURE","Products":["ORPHENADRINE CITRATE","ORPHENADRINE CITRATE EXTENDED-RELEASE TABLETS","TEMAZEPAM","TEMAZEPAM CAPSULES","TRAMADOL HYDROCHLORIDE","TRAMADOL HYDROCHLORIDE TABLETS"],"City":"Greensburg","Country":"United States","Application Data":"Yes","Activeness Flag":"Unknown","Forecasted Volume":"50 kg\/yr","latitude":"40.290088","longitude":"-79.566597"},{"Manufacturer":"Nexair, LLC","Manufacturing Type":"API MANUFACTURE","Products":["OXYGEN"],"City":"Dalton","Country":"United States","Application Data":"Yes","Activeness Flag":"Unknown","Forecasted Volume":"50 kg\/yr","latitude":"34.797693","longitude":"-84.976097"},{"Manufacturer":"ANNORA PHARMA PRIVATE LIMITED","Manufacturing Type":"MANUFACTURE","Products":["NITROGEN","OXYGEN"],"City":"Brooklyn","Country":"United States","Application Data":"Yes","Activeness Flag":"Unknown","Forecasted Volume":"50 kg\/yr","latitude":"40.660323","longitude":"-74.001098"},{"Manufacturer":"Red Ball Medical Supply, Inc.","Manufacturing Type":"MANUFACTURE","Products":["THIOTEPA","THIOTEPA FOR INJECTION"],"City":"Southampton","Country":"United States","Application Data":"Yes","Activeness Flag":"Unknown","Forecasted Volume":"50 kg\/yr","latitude":"40.887154","longitude":"-72.388953"},{"Manufacturer":"Premier Oxygen, LLC","Manufacturing Type":"API MANUFACTURE","Products":["ASCORBIC ACID","BIOTIN","CHOLECALCIFEROL","CYANOCOBALAMIN","DEXPANTHENOL","FOLIC ACID","NIACINAMIDE","PHYTONADIONE","PYRIDOXINE HYDROCHLORIDE","RIBOFLAVIN","SUCCINYLCHOLINE CHLORIDE","SUCCINYLCHOLINE CHLORIDE INJECTION","THIAMINE HYDROCHLORIDE","VITAMIN A"],"City":"Kansas City","Country":"United States","Application Data":"Yes","Activeness Flag":"Unknown","Forecasted Volume":"50 kg\/yr","latitude":"39.111893","longitude":"-94.503815"},{"Manufacturer":"Boone Drugs Inc.","Manufacturing Type":"MANUFACTURE","Products":["HYDROQUINONE","HYDROQUINONE CREAM"],"City":"Glasgow","Country":"United States","Application Data":"Yes","Activeness Flag":"Unknown","Forecasted Volume":"50 kg\/yr","latitude":"37.017941","longitude":"-85.959682"},{"Manufacturer":"Airgas Usa, LLC","Manufacturing Type":"API MANUFACTURE","Products":["OXYGEN"],"City":"Columbia","Country":"United States","Application Data":"Yes","Activeness Flag":"Unknown","Forecasted Volume":"50 kg\/yr","latitude":"34.0689","longitude":"-81.02"},{"Manufacturer":"Browning's Pharmacy and Health Care, Inc.","Manufacturing Type":"API MANUFACTURE","Products":["AMPHETAMINE SULFATE","AMPHETAMINE SULFATE TABLETS","KETOCONAZOLE","KETOCONAZOLE TABLETS"],"City":"Tampa","Country":"United States","Application Data":"Yes","Activeness Flag":"Unknown","Forecasted Volume":"50 kg\/yr","latitude":"28.016787","longitude":"-82.53388"},{"Manufacturer":"Neolpharma, Inc.","Manufacturing Type":"MANUFACTURE","Products":["ATOMOXETINE CAPSULES","ATOMOXETINE HYDROCHLORIDE","COLCHICINE","COLCHICINE TABLETS","DEFERASIROX","DEFERASIROX TABLETS","DROXIDOPA","DROXIDOPA CAPSULES","HYDRALAZINE HYDROCHLORIDE","HYDRALAZINE HYDROCHLORIDE TABLETS","ITRACONAZOLE","ITRACONAZOLE ORAL SOLUTION","LAMIVUDINE","LAMIVUDINE TABLETS","LEVETIRACETAM","LEVETIRACETAM TABLETS","LEVOCETIRIZINE DIHYDROCHLORIDE","LEVOCETIRIZINE DIHYDROCHLORIDE TABLETS","MESALAMINE","MESALAMINE SUPPOSITORIES","SILDENAFIL CITRATE","SILDENAFIL FOR ORAL SUSPENSION","SIMVASTATIN","SIMVASTATIN TABLETS","TOLTERODINE TARTRATE","TOLVAPTAN","TOLVAPTAN TABLETS","VENLAFAXINE HYDROCHLORIDE","VENLAFAXINE HYDROCHLORIDE EXTENDED-RELEASE CAPSULES","ZAFIRLUKAST","ZAFIRLUKAST TABLETS"],"City":"High Point","Country":"United States","Application Data":"Yes","Activeness Flag":"Unknown","Forecasted Volume":"50 kg\/yr","latitude":"36.052176","longitude":"-79.96076"},{"Manufacturer":"Actavis Elizabeth LLC","Manufacturing Type":"MANUFACTURE","Products":["BENZTROPINE MESYLATE","BENZTROPINE MESYLATE TABLETS","FOLIC ACID","FOLIC ACID TABLETS","FUROSEMIDE","FUROSEMIDE TABLETS","GLYCOPYRROLATE","GLYCOPYRROLATE TABLETS","HYDROCHLOROTHIAZIDE","HYDROCHLOROTHIAZIDE TABLETS","IMIPRAMINE HYDROCHLORIDE","IMIPRAMINE HYDROCHLORIDE TABLETS","LORAZEPAM","LORAZEPAM TABLETS"],"City":"Pittsburgh","Country":"United States","Application Data":"Yes","Activeness Flag":"Unknown","Forecasted Volume":"50 kg\/yr","latitude":"40.44376","longitude":"-80.086384"},{"Manufacturer":"Tri State Medical Supply","Manufacturing Type":"API MANUFACTURE","Products":["COBICISTAT","DARUNAVIR","EMTRICITABINE","TENOFOVIR ALAFENAMIDE","TENOFOVIR ALAFENAMIDE FUMARATE"],"City":"Waukesha","Country":"United States","Application Data":"Yes","Activeness Flag":"Unknown","Forecasted Volume":"50 kg\/yr","latitude":"43.030589","longitude":"-88.22593"},{"Manufacturer":"DELPHARM MILANO SRL","Manufacturing Type":"MANUFACTURE","Products":["GOLIMUMAB","GOLIMUMAB INJECTION","HYALURONIDASE","INFLIXIMAB","RISPERIDONE","RISPERIDONE FOR EXTENDED-RELEASE INJECTABLE SUSPENSION","USTEKINUMAB","USTEKINUMAB INJECTION"],"City":"Missoula","Country":"United States","Application Data":"Yes","Activeness Flag":"Unknown","Forecasted Volume":"50 kg\/yr","latitude":"46.89068","longitude":"-114.026728"},{"Manufacturer":"Nexair, LLC","Manufacturing Type":"API MANUFACTURE","Products":["CANAKINUMAB","CANAKINUMAB INJECTION","INTERFERON BETA-1B FOR INJECTION","INTERFERON BETA-1b","OFATUMUMAB","SECUKINUMAB","SECUKINUMAB INJECTION"],"City":"Rockville","Country":"United States","Application Data":"Yes","Activeness Flag":"Unknown","Forecasted Volume":"50 kg\/yr","latitude":"39.103359","longitude":"-77.211152"},{"Manufacturer":"Actavis LLC","Manufacturing Type":"MANUFACTURE","Products":["NITROGEN","OXYGEN"],"City":"Longmont","Country":"United States","Application Data":"Yes","Activeness Flag":"Unknown","Forecasted Volume":"50 kg\/yr","latitude":"40.188289","longitude":"-105.102375"},{"Manufacturer":"SOFTECH PHARMA PRIVATE LIMITED","Manufacturing Type":"MANUFACTURE","Products":["RIMABOTULINUMTOXINB"],"City":"Baytown","Country":"United States","Application Data":"Yes","Activeness Flag":"Unknown","Forecasted Volume":"50 kg\/yr","latitude":"29.720663","longitude":"-94.981769"},{"Manufacturer":"Airgas Usa, LLC","Manufacturing Type":"MANUFACTURE","Products":["CLONIDINE","CLONIDINE TRANSDERMAL SYSTEM","ETHINYL ESTRADIOL","LEVONORGESTREL"],"City":"Plainsboro","Country":"United States","Application Data":"Yes","Activeness Flag":"Unknown","Forecasted Volume":"50 kg\/yr","latitude":"40.340852","longitude":"-74.603983"},{"Manufacturer":"Jacobus Pharmaceutical Co Inc","Manufacturing Type":"MANUFACTURE","Products":["CLINDAMYCIN HYDROCHLORIDE","CLINDAMYCIN PALMITATE HYDROCHLORIDE","DESOXIMETASONE","DESOXIMETASONE CREAM","DESOXIMETASONE GEL","DIFLORASONE DIACETATE","DIFLORASONE DIACETATE OINTMENT","ERYTHROMYCIN","ERYTHROMYCIN PLEDGETS","FLUOCINOLONE ACETONIDE","HYDROCORTISONE","HYDROCORTISONE HEMISUCCINATE","HYDROCORTISONE SODIUM SUCCINATE","HYDROQUINONE","HYDROQUINONE CREAM","IODOQUINOL","TRIAMCINOLONE","TRIAMCINOLONE ACETONIDE","TRIAMCINOLONE ACETONIDE LOTION"],"City":"Moses Lake","Country":"United States","Application Data":"Yes","Activeness Flag":"Unknown","Forecasted Volume":"50 kg\/yr","latitude":"47.131167","longitude":"-119.257032"},{"Manufacturer":"Airgas Usa, LLC","Manufacturing Type":"MANUFACTURE","Products":["ANHYDROUS CITRIC ACID","CITRIC ACID MONOHYDRATE","MAGNESIUM OXIDE","SODIUM PICOSULFATE","SODIUM PICOSULFATE, MAGNESIUM OXIDE, AND CITRIC ACID FOR ORAL SOLUTION"],"City":"Irvine","Country":"United States","Application Data":"Yes","Activeness Flag":"Unknown","Forecasted Volume":"50 kg\/yr","latitude":"33.648769","longitude":"-117.716425"},{"Manufacturer":"Services Pharmaceutiques Avara Boucherville Inc","Manufacturing Type":"API MANUFACTURE","Products":["OXYGEN"],"City":"Minneapolis","Country":"United States","Application Data":"Yes","Activeness Flag":"Unknown","Forecasted Volume":"50 kg\/yr","latitude":"44.941994","longitude":"-93.341485"},{"Manufacturer":"Williams Medical Supply, Inc.","Manufacturing Type":"MANUFACTURE","Products":["AVELUMAB","AVELUMAB INJECTION","INTERFERON BETA-1A"],"City":"Sterling","Country":"United States","Application Data":"Yes","Activeness Flag":"Unknown","Forecasted Volume":"50 kg\/yr","latitude":"41.809854","longitude":"-89.659711"},{"Manufacturer":"Amri Rensselaer, Inc.","Manufacturing Type":"MANUFACTURE","Products":["OXYGEN"],"City":"Canton","Country":"United States","Application Data":"Yes","Activeness Flag":"Unknown","Forecasted Volume":"50 kg\/yr","latitude":"40.76561","longitude":"-81.405034"},{"Manufacturer":"Airgas Usa, LLC","Manufacturing Type":"MANUFACTURE","Products":["NITROGEN","OXYGEN"],"City":"Williamsville","Country":"United States","Application Data":"Yes","Activeness Flag":"Unknown","Forecasted Volume":"50 kg\/yr","latitude":"42.95351","longitude":"-78.70843"},{"Manufacturer":"Pel Healthcare LLC","Manufacturing Type":"MANUFACTURE","Products":["OXYGEN"],"City":"Wilson","Country":"United States","Application Data":"Yes","Activeness Flag":"Unknown","Forecasted Volume":"50 kg\/yr","latitude":"35.6616","longitude":"-77.9623"},{"Manufacturer":"Reliance Bottle Gas Company Inc.","Manufacturing Type":"MANUFACTURE","Products":["LIDOCAINE","MENTHOL"],"City":"New Berlin","Country":"United States","Application Data":"Yes","Activeness Flag":"Unknown","Forecasted Volume":"50 kg\/yr","latitude":"42.993185","longitude":"-88.116886"},{"Manufacturer":"Community Home Oxygen, Inc.","Manufacturing Type":"MANUFACTURE","Products":["HELIUM","NITROGEN","OXYGEN"],"City":"Saint Paul","Country":"United States","Application Data":"Yes","Activeness Flag":"Unknown","Forecasted Volume":"50 kg\/yr","latitude":"45.068635","longitude":"-93.049987"},{"Manufacturer":"Humphries, Inc.","Manufacturing Type":"MANUFACTURE","Products":["OXYGEN"],"City":"Rock Falls","Country":"United States","Application Data":"Yes","Activeness Flag":"Unknown","Forecasted Volume":"50 kg\/yr","latitude":"41.761634","longitude":"-89.67787"},{"Manufacturer":"Grand View Hospital","Manufacturing Type":"MANUFACTURE","Products":["NITROGEN"],"City":"Indianapolis","Country":"United States","Application Data":"Yes","Activeness Flag":"Unknown","Forecasted Volume":"50 kg\/yr","latitude":"39.682369","longitude":"-86.19273"},{"Manufacturer":"LMI Legacy Holdings II Inc","Manufacturing Type":"MANUFACTURE","Products":["NITROGEN"],"City":"Middlebury","Country":"United States","Application Data":"Yes","Activeness Flag":"Unknown","Forecasted Volume":"50 kg\/yr","latitude":"41.556592","longitude":"-73.100659"},{"Manufacturer":"Matheson Tri-Gas, Inc.","Manufacturing Type":"API MANUFACTURE","Products":["ESOMEPRAZOLE MAGNESIUM","ESOMEPRAZOLE MAGNESIUM DELAYED-RELEASE CAPSULES","ESOMEPRAZOLE SODIUM","ESOMEPRAZOLE STRONTIUM","ESOMEPRAZOLE STRONTIUM DELAYED-RELEASE CAPSULES"],"City":"Portland","Country":"United States","Application Data":"Yes","Activeness Flag":"Unknown","Forecasted Volume":"50 kg\/yr","latitude":"45.536656","longitude":"-122.658674"},{"Manufacturer":"Oxarc, Inc.","Manufacturing Type":"MANUFACTURE","Products":["OXYGEN"],"City":"Englishtown","Country":"United States","Application Data":"Yes","Activeness Flag":"Unknown","Forecasted Volume":"50 kg\/yr","latitude":"40.256899","longitude":"-74.388309"},{"Manufacturer":"United Therapeutics Corporation","Manufacturing Type":"MANUFACTURE","Products":["DROSPIRENONE","ETHINYL ESTRADIOL","FERROUS FUMARATE","NORETHINDRONE"],"City":"Santa Rosa","Country":"United States","Application Data":"Yes","Activeness Flag":"Unknown","Forecasted Volume":"50 kg\/yr","latitude":"38.471988","longitude":"-122.73557"},{"Manufacturer":"Humanwell Puracap Pharmaceuticals (Wuhan) Co., Ltd.","Manufacturing Type":"MANUFACTURE","Products":["DOXYCYCLINE","DOXYCYCLINE CAPSULES","DOXYCYCLINE HYCLATE","DOXYCYCLINE HYCLATE CAPSULES","DOXYCYCLINE HYCLATE TABLETS","DOXYCYCLINE TABLETS","LEVETIRACETAM","LEVETIRACETAM EXTENDED-RELEASE TABLETS","ROSUVASTATIN CALCIUM","ROSUVASTATIN TABLETS"],"City":"Knoxville","Country":"United States","Application Data":"Yes","Activeness Flag":"Unknown","Forecasted Volume":"50 kg\/yr","latitude":"35.909777","longitude":"-84.155231"},